station_id,station_name,obs_time,latitude_wgs84,longitude_wgs84,latitude_twd67,longitude_twd67,altitude,county_name,town_name,county_code,town_code,weather,visibility_description,sunshine_duration,precipitation,wind_direction,wind_speed,air_temperature,relative_humidity,air_pressure,uv_index,max_10min_wind_speed,max_10min_wind_direction,max_10min_wind_time,peak_gust_speed,peak_gust_wind_direction,peak_gust_time,daily_high_temperature,daily_high_temperature_time,daily_low_temperature,daily_low_temperature_time
466940,基隆,2026-07-02T10:30:00+08:00,25.133314,121.740475,25.135104,121.732242,26.7,基隆市,仁愛區,10017,10017040,晴,>30,4.7,0.0,30.0,3.2,30.6,74.0,1008.3,10.0,3.0,30.0,2026-07-02T09:42:00+08:00,4.2,30.0,2026-07-02T09:42:00+08:00,30.9,2026-07-02T09:56:00+08:00,26.5,2026-07-02T04:59:00+08:00
466900,淡水,2026-07-02T10:30:00+08:00,25.164889,121.448906,25.166664,121.440672,19.0,新北市,淡水區,65000,65000100,晴,>30,,,,,,,,,,,,,,,,,,
466881,新北,2026-07-02T10:30:00+08:00,24.959207,121.525196,24.96099,121.516977,24.5,新北市,新店區,65000,65000060,晴,>30,4.9,0.0,60.0,1.4,32.9,61.0,1008.3,9.0,1.5,290.0,2026-07-02T09:44:00+08:00,3.2,310.0,2026-07-02T09:42:00+08:00,33.1,2026-07-02T10:28:00+08:00,24.3,2026-07-02T05:15:00+08:00
466930,陽明山,2026-07-02T10:30:00+08:00,25.162078,121.544547,25.163858,121.536313,607.1,臺北市,北投區,63000,63000120,晴,,2.9,0.0,250.0,0.5,26.7,86.0,944.4,6.0,1.5,210.0,2026-07-02T09:23:00+08:00,3.1,220.0,2026-07-02T09:22:00+08:00,26.9,2026-07-02T09:35:00+08:00,22.4,2026-07-02T03:48:00+08:00
466910,鞍部,2026-07-02T10:30:00+08:00,25.182586,121.529731,25.184365,121.521495,837.6,臺北市,北投區,63000,63000120,晴,>30,4.2,0.0,140.0,1.6,27.8,76.0,,9.0,1.6,200.0,2026-07-02T09:44:00+08:00,4.1,170.0,2026-07-02T09:44:00+08:00,27.9,2026-07-02T10:00:00+08:00,20.4,2026-07-02T03:57:00+08:00
467571,新竹,2026-07-02T10:30:00+08:00,24.828575,121.01445,24.830335,121.006343,26.9,新竹縣,竹北市,10004,10004010,多雲,>30,1.8,0.0,290.0,2.0,30.5,75.0,1008.5,5.0,1.7,300.0,2026-07-02T09:34:00+08:00,3.9,290.0,2026-07-02T09:29:00+08:00,31.6,2026-07-02T09:46:00+08:00,26.2,2026-07-02T05:00:00+08:00
467490,臺中,2026-07-02T10:30:00+08:00,24.145736,120.684075,24.147494,120.675919,84.0,臺中市,北區,66000,66000050,多雲,>30,1.6,0.0,290.0,0.7,31.7,71.0,1001.7,6.0,1.6,220.0,2026-07-02T09:36:00+08:00,3.9,210.0,2026-07-02T09:30:00+08:00,32.0,2026-07-02T10:01:00+08:00,27.4,2026-07-02T01:38:00+08:00
C0FA30,梧棲,2026-07-02T10:30:00+08:00,24.256003,120.523381,24.257753,120.515211,31.7,臺中市,梧棲區,66000,66000140,多雲,,,0.0,320.0,3.5,29.8,83.0,,,3.6,320.0,2026-07-02T09:54:00+08:00,5.5,320.0,2026-07-02T09:53:00+08:00,29.9,2026-07-02T10:22:00+08:00,27.9,2026-07-02T04:24:00+08:00
467350,澎湖,2026-07-02T10:30:00+08:00,23.565503,119.563094,23.56722,119.554987,10.7,澎湖縣,馬公市,10016,10016010,晴,>30,2.0,0.0,340.0,1.2,29.7,81.0,1010.7,5.0,1.9,360.0,2026-07-02T09:39:00+08:00,3.5,360.0,2026-07-02T09:39:00+08:00,30.4,2026-07-02T09:17:00+08:00,26.8,2026-07-02T03:15:00+08:00
467650,日月潭,2026-07-02T10:30:00+08:00,23.881325,120.90805,23.883099,120.899911,1017.5,南投縣,魚池鄉,10008,10008090,晴,7-10,2.1,0.0,300.0,0.3,25.8,89.0,,6.0,0.5,330.0,2026-07-02T09:05:00+08:00,1.7,340.0,2026-07-02T09:05:00+08:00,27.9,2026-07-02T10:09:00+08:00,21.1,2026-07-02T05:24:00+08:00
467530,阿里山,2026-07-02T10:30:00+08:00,23.508208,120.813242,23.509984,120.805129,2413.4,嘉義縣,阿里山鄉,10010,10010180,晴,>30,4.1,0.0,300.0,0.9,18.5,81.0,,10.0,1.2,360.0,2026-07-02T09:38:00+08:00,3.3,10.0,2026-07-02T09:17:00+08:00,20.4,2026-07-02T09:46:00+08:00,11.4,2026-07-02T02:37:00+08:00
467550,玉山,2026-07-02T10:30:00+08:00,23.48718,120.95943,23.488964,120.951318,3844.8,南投縣,信義鄉,10008,10008120,晴,,0.2,0.0,300.0,2.8,16.7,55.0,,13.0,3.3,300.0,2026-07-02T09:25:00+08:00,7.7,290.0,2026-07-02T09:43:00+08:00,17.1,2026-07-02T10:23:00+08:00,15.8,2026-07-02T10:27:00+08:00
467480,嘉義,2026-07-02T10:30:00+08:00,23.495925,120.432906,23.497684,120.424796,26.9,嘉義市,西區,10020,10020020,多雲,>30,2.1,0.0,280.0,1.8,32.2,71.0,1008.1,6.0,2.0,270.0,2026-07-02T10:00:00+08:00,4.1,300.0,2026-07-02T09:24:00+08:00,32.4,2026-07-02T10:29:00+08:00,26.9,2026-07-02T02:21:00+08:00
467410,臺南,2026-07-02T10:30:00+08:00,22.99328,120.20492,22.995039,120.196846,40.8,臺南市,中西區,67000,67000370,晴,>30,2.9,0.0,240.0,3.1,31.4,69.0,1009.0,7.0,2.7,260.0,2026-07-02T09:28:00+08:00,4.6,230.0,2026-07-02T09:58:00+08:00,32.0,2026-07-02T10:12:00+08:00,28.1,2026-07-02T05:10:00+08:00
467441,高雄,2026-07-02T10:30:00+08:00,22.730432,120.312516,22.732201,120.304459,11.8,高雄市,楠梓區,64000,64000040,晴,>30,2.8,0.0,270.0,1.9,31.5,75.0,1010.4,7.0,2.3,280.0,2026-07-02T09:58:00+08:00,4.1,270.0,2026-07-02T09:52:00+08:00,32.3,2026-07-02T09:49:00+08:00,26.3,2026-07-02T05:18:00+08:00
467590,恆春,2026-07-02T10:30:00+08:00,22.003897,120.746339,22.0057,120.738326,22.3,屏東縣,恆春鎮,10013,10013040,多雲有雨,>30,1.0,10.0,110.0,4.6,29.7,85.0,1010.0,7.0,4.0,110.0,2026-07-02T09:29:00+08:00,7.7,100.0,2026-07-02T09:38:00+08:00,30.6,2026-07-02T09:45:00+08:00,26.4,2026-07-02T04:45:00+08:00
467080,宜蘭,2026-07-02T10:30:00+08:00,24.763975,121.756528,24.765773,121.748322,7.2,宜蘭縣,宜蘭市,10002,10002010,晴,>30,4.8,0.0,40.0,3.1,32.0,72.0,1010.3,8.0,3.2,60.0,2026-07-02T10:00:00+08:00,4.5,40.0,2026-07-02T09:42:00+08:00,32.3,2026-07-02T10:25:00+08:00,25.1,2026-07-02T05:20:00+08:00
466990,花蓮,2026-07-02T10:30:00+08:00,23.975128,121.613275,23.976933,121.605126,16.1,花蓮縣,花蓮市,10015,10015010,晴,>30,5.1,0.0,170.0,8.0,29.9,80.0,1010.0,8.0,6.1,180.0,2026-07-02T09:59:00+08:00,10.5,180.0,2026-07-02T09:50:00+08:00,30.6,2026-07-02T09:59:00+08:00,25.9,2026-07-02T04:51:00+08:00
467610,成功,2026-07-02T10:30:00+08:00,23.097486,121.373428,23.099296,121.36534,33.5,臺東縣,成功鎮,10014,10014020,晴,>30,4.9,0.0,200.0,1.4,31.2,81.0,1008.5,10.0,1.7,200.0,2026-07-02T09:01:00+08:00,3.7,210.0,2026-07-02T09:03:00+08:00,31.4,2026-07-02T10:18:00+08:00,25.0,2026-07-02T05:02:00+08:00
467660,臺東,2026-07-02T10:30:00+08:00,22.752211,121.154586,22.754017,121.146522,9.0,臺東縣,臺東市,10014,10014010,多雲,>30,4.1,0.0,150.0,2.0,31.5,72.0,1012.1,10.0,2.0,150.0,2026-07-02T09:01:00+08:00,3.6,150.0,2026-07-02T09:51:00+08:00,31.7,2026-07-02T10:23:00+08:00,26.7,2026-07-02T05:47:00+08:00
467540,大武,2026-07-02T10:30:00+08:00,22.35572,120.90374,22.357523,120.895703,8.1,臺東縣,大武鄉,10014,10014100,陰有雨,,0.1,31.0,350.0,1.1,26.9,93.0,1012.5,4.0,1.5,330.0,2026-07-02T09:43:00+08:00,2.6,340.0,2026-07-02T09:39:00+08:00,28.7,2026-07-02T10:07:00+08:00,26.4,2026-07-02T02:19:00+08:00
467620,蘭嶼,2026-07-02T10:30:00+08:00,22.0369,121.55843,22.038737,121.55041,324.0,臺東縣,蘭嶼鄉,10014,10014160,晴,>30,1.4,14.5,160.0,3.4,28.1,90.0,977.2,6.0,5.8,160.0,2026-07-02T09:42:00+08:00,9.9,180.0,2026-07-02T09:37:00+08:00,28.4,2026-07-02T10:07:00+08:00,24.5,2026-07-02T02:48:00+08:00
466950,彭佳嶼,2026-07-02T10:30:00+08:00,25.627975,122.079744,25.629774,122.071474,101.7,基隆市,中正區,10017,10017010,晴,>30,4.9,0.0,180.0,4.0,30.2,80.0,1000.3,10.0,4.1,150.0,2026-07-02T09:31:00+08:00,6.4,150.0,2026-07-02T09:35:00+08:00,30.2,2026-07-02T10:30:00+08:00,26.6,2026-07-02T05:16:00+08:00
467300,東吉島,2026-07-02T10:30:00+08:00,23.25727,119.66762,23.258999,119.659533,43.0,澎湖縣,望安鄉,10016,10016050,多雲,>30,4.5,0.0,10.0,1.6,29.8,88.0,1007.2,8.0,3.6,20.0,2026-07-02T09:19:00+08:00,4.5,10.0,2026-07-02T09:43:00+08:00,30.5,2026-07-02T09:53:00+08:00,27.0,2026-07-02T04:37:00+08:00
469020,南沙島,2026-07-02T10:30:00+08:00,10.370203,114.364286,10.372116,114.356938,4.5,高雄市,旗津區,64000,64000100,,,,,,,,,,,,,,,,,,,,
468100,東沙島,2026-07-02T10:30:00+08:00,20.700856,116.73,20.70252,116.722116,4.0,高雄市,旗津區,64000,64000100,,,,0.0,130.0,4.0,31.9,76.0,1009.4,,4.7,130.0,2026-07-02T09:22:00+08:00,9.1,120.0,2026-07-02T09:42:00+08:00,32.1,2026-07-02T09:52:00+08:00,29.3,2026-07-02T04:19:00+08:00
467420,永康,2026-07-02T10:30:00+08:00,23.038386,120.2367,23.040146,120.228623,8.1,臺南市,永康區,67000,67000310,晴,,2.4,0.0,,,31.7,69.0,1010.4,,,,,,,,32.0,2026-07-02T09:41:00+08:00,27.8,2026-07-02T05:54:00+08:00
C2W030,金門(東),2026-07-02T10:30:00+08:00,24.448431,118.451786,24.450074,118.443627,24.0,金門縣,金湖鎮,09020,09020030,晴,,,,,,,,,,2.2,200.0,2026-07-02T09:42:00+08:00,5.3,230.0,2026-07-02T09:47:00+08:00,,,,
466920,臺北,2026-07-02T10:30:00+08:00,25.037658,121.514853,25.039439,121.506628,6.3,臺北市,中正區,63000,63000050,晴,>30,4.8,0.0,350.0,1.2,33.0,63.0,1007.6,7.0,1.2,350.0,2026-07-02T09:13:00+08:00,3.8,360.0,2026-07-02T09:20:00+08:00,34.0,2026-07-02T10:24:00+08:00,27.5,2026-07-02T05:16:00+08:00
A0G720,彰師大,2026-07-02T10:30:00+08:00,24.081389,120.556667,24.08314,120.548508,37.0,彰化縣,彰化市,10007,10007010,多雲,,,0.0,290.0,2.7,30.8,81.0,,,2.1,280.0,2026-07-02T09:31:00+08:00,4.2,270.0,2026-07-02T09:27:00+08:00,32.3,2026-07-02T09:10:00+08:00,27.8,2026-07-02T02:12:00+08:00
A0Z080,合歡山,2026-07-02T10:30:00+08:00,24.143186,121.284231,24.144972,121.276071,3171.0,花蓮縣,秀林鄉,10015,10015110,晴,,,0.0,70.0,3.7,18.7,57.0,,,2.5,80.0,2026-07-02T10:00:00+08:00,6.5,270.0,2026-07-02T09:09:00+08:00,20.7,2026-07-02T08:29:00+08:00,7.1,2026-07-02T04:06:00+08:00
A0W080,吉貝,2026-07-02T10:30:00+08:00,23.740011,119.604189,23.741712,119.596041,3.0,澎湖縣,白沙鄉,10016,10016030,多雲,,,,,,,,,,,,,,,,,,,
467110,金門,2026-07-02T10:30:00+08:00,24.407306,118.289281,24.408942,118.281127,47.9,金門縣,金城鎮,09020,09020010,晴,21-30,4.1,0.0,240.0,1.7,31.2,75.0,1009.0,9.0,2.4,250.0,2026-07-02T09:52:00+08:00,3.3,240.0,2026-07-02T09:51:00+08:00,31.4,2026-07-02T10:26:00+08:00,27.6,2026-07-02T01:38:00+08:00
467990,馬祖,2026-07-02T10:30:00+08:00,26.169467,119.923158,26.171145,119.914855,97.8,連江縣,南竿鄉,09007,09007010,晴,>30,4.2,0.0,210.0,2.6,31.4,63.0,1000.5,9.0,2.8,230.0,2026-07-02T09:15:00+08:00,4.8,240.0,2026-07-02T09:02:00+08:00,31.5,2026-07-02T10:26:00+08:00,26.7,2026-07-02T05:40:00+08:00
A0K420,麥寮,2026-07-02T10:30:00+08:00,23.798783,120.217717,23.800517,120.209572,22.0,雲林縣,麥寮鄉,10009,10009130,晴,,,0.0,350.0,2.2,29.6,80.0,,,2.2,340.0,2026-07-02T09:37:00+08:00,4.8,340.0,2026-07-02T09:42:00+08:00,32.5,2026-07-02T08:05:00+08:00,28.0,2026-07-02T05:28:00+08:00
467050,新屋,2026-07-02T10:30:00+08:00,25.006725,121.047492,25.008484,121.039271,20.6,桃園市,新屋區,68000,68000110,晴,11-15,2.3,0.0,300.0,2.9,30.5,76.0,1009.4,7.0,3.3,290.0,2026-07-02T09:56:00+08:00,4.9,270.0,2026-07-02T09:51:00+08:00,31.0,2026-07-02T10:18:00+08:00,26.4,2026-07-02T05:06:00+08:00
A2K570,古坑(花卉中心),2026-07-02T10:30:00+08:00,23.63353,120.55239,23.6353,120.54428,90.0,雲林縣,古坑鄉,10009,10009070,多雲,,,0.0,300.0,2.0,31.6,73.0,,,1.3,290.0,2026-07-02T09:01:00+08:00,2.7,210.0,2026-07-02T09:24:00+08:00,32.2,2026-07-02T09:20:00+08:00,25.6,2026-07-02T02:55:00+08:00
CAAH60,大安森林,2026-07-02T10:30:00+08:00,25.02955,121.53628,25.031331,121.528056,18.0,臺北市,大安區,63000,63000030,晴,,,0.0,0.0,0.2,34.2,57.0,,,0.3,90.0,2026-07-02T09:36:00+08:00,1.8,110.0,2026-07-02T09:32:00+08:00,34.5,2026-07-02T10:26:00+08:00,25.0,2026-07-02T04:44:00+08:00
CAHA00,消防署訓練中心,2026-07-02T10:30:00+08:00,23.82137,120.72293,23.82313,120.7148,176.0,南投縣,竹山鎮,10008,10008040,多雲,,,0.0,270.0,2.1,32.1,70.0,,,2.0,250.0,2026-07-02T09:31:00+08:00,4.0,260.0,2026-07-02T09:29:00+08:00,32.3,2026-07-02T09:51:00+08:00,25.3,2026-07-02T05:02:00+08:00
467270,田中,2026-07-02T10:30:00+08:00,23.873803,120.581286,23.875561,120.573149,48.6,彰化縣,田中鎮,10007,10007120,多雲,>30,3.1,0.0,260.0,1.2,31.7,74.0,1006.4,5.0,1.5,250.0,2026-07-02T09:57:00+08:00,3.5,250.0,2026-07-02T09:53:00+08:00,32.1,2026-07-02T10:10:00+08:00,26.9,2026-07-02T03:28:00+08:00
CAC040,拉拉山,2026-07-02T10:30:00+08:00,24.699317,121.427133,24.7011,121.418933,1684.0,桃園市,復興區,68000,68000130,晴,,,0.0,190.0,2.1,24.5,70.0,,,2.1,180.0,2026-07-02T09:56:00+08:00,3.9,180.0,2026-07-02T10:00:00+08:00,24.5,2026-07-02T10:30:00+08:00,18.9,2026-07-02T02:05:00+08:00
CAW010,東引,2026-07-02T10:30:00+08:00,26.358836,120.483631,26.360539,120.475308,42.0,連江縣,東引鄉,09007,09007040,多雲,16-20,,0.0,220.0,1.2,30.9,78.0,,,2.8,230.0,2026-07-02T09:10:00+08:00,4.3,230.0,2026-07-02T09:08:00+08:00,31.1,2026-07-02T10:20:00+08:00,27.2,2026-07-02T05:40:00+08:00
CAP070,高雄燈塔,2026-07-02T10:30:00+08:00,22.614594,120.26468,22.616364,120.256631,34.0,高雄市,旗津區,64000,64000100,晴,,,0.0,150.0,3.7,31.5,73.0,,,3.5,150.0,2026-07-02T09:50:00+08:00,7.5,170.0,2026-07-02T09:58:00+08:00,32.0,2026-07-02T09:16:00+08:00,27.1,2026-07-02T03:51:00+08:00
A0F010,武陵,2026-07-02T10:30:00+08:00,24.352825,121.308286,24.354609,121.300112,1804.0,臺中市,和平區,66000,66000290,晴,,,0.0,120.0,1.8,26.2,52.0,,,2.1,110.0,2026-07-02T09:40:00+08:00,4.5,80.0,2026-07-02T09:48:00+08:00,26.3,2026-07-02T10:25:00+08:00,13.0,2026-07-02T05:19:00+08:00
467280,後龍,2026-07-02T10:30:00+08:00,24.648563,120.831834,24.650318,120.823641,30.0,苗栗縣,造橋鄉,10005,10005150,多雲,>30,0.5,0.0,310.0,0.8,29.8,80.0,1007.9,3.0,1.5,30.0,2026-07-02T09:26:00+08:00,3.2,30.0,2026-07-02T09:11:00+08:00,29.8,2026-07-02T10:29:00+08:00,26.1,2026-07-02T05:04:00+08:00
467290,古坑,2026-07-02T10:30:00+08:00,23.633536,120.551906,23.635298,120.543786,91.9,雲林縣,古坑鄉,10009,10009070,多雲,21-30,1.5,0.0,310.0,2.5,31.0,74.0,1001.1,5.0,1.7,260.0,2026-07-02T09:58:00+08:00,2.9,280.0,2026-07-02T09:55:00+08:00,31.1,2026-07-02T10:04:00+08:00,26.1,2026-07-02T02:49:00+08:00
C2C410,中央大學,2026-07-02T10:30:00+08:00,24.967652,121.185165,24.969417,121.176946,129.0,桃園市,中壢區,68000,68000020,晴,,,0.0,330.0,2.0,30.2,75.0,,,2.3,270.0,2026-07-02T09:38:00+08:00,5.8,290.0,2026-07-02T09:12:00+08:00,31.1,2026-07-02T10:16:00+08:00,26.0,2026-07-02T05:31:00+08:00
A0A460,文化大學,2026-07-02T10:30:00+08:00,25.13605,121.53987,25.137855,121.531657,424.4,臺北市,士林區,63000,63000110,晴,,,0.0,260.0,1.9,28.9,78.0,,,1.8,260.0,2026-07-02T09:25:00+08:00,3.3,250.0,2026-07-02T09:54:00+08:00,30.3,2026-07-02T09:45:00+08:00,24.9,2026-07-02T04:53:00+08:00
A0A010,臺灣大學,2026-07-02T10:30:00+08:00,25.014278,121.539416,25.01606,121.531193,17.0,臺北市,大安區,63000,63000030,晴,,,0.0,40.0,0.8,34.3,61.0,,,1.3,90.0,2026-07-02T09:57:00+08:00,3.7,90.0,2026-07-02T09:49:00+08:00,34.3,2026-07-02T10:30:00+08:00,25.7,2026-07-02T04:35:00+08:00
72S200,班鳩分場,2026-07-02T10:30:00+08:00,22.829528,121.077694,22.831307,121.069619,240.0,臺東縣,卑南鄉,10014,10014040,晴,,,0.0,110.0,3.5,32.0,66.0,,,3.4,100.0,2026-07-02T09:11:00+08:00,6.6,120.0,2026-07-02T09:04:00+08:00,33.0,2026-07-02T10:24:00+08:00,23.2,2026-07-02T04:02:00+08:00
72S590,賓朗果園,2026-07-02T10:30:00+08:00,22.813889,121.071278,22.815668,121.063204,290.0,臺東縣,卑南鄉,10014,10014040,晴,,,0.0,330.0,1.2,30.3,74.0,,,2.0,50.0,2026-07-02T09:19:00+08:00,4.4,60.0,2026-07-02T09:47:00+08:00,31.7,2026-07-02T10:08:00+08:00,22.7,2026-07-02T04:51:00+08:00
82S580,臺東茶改,2026-07-02T10:30:00+08:00,22.907694,121.130139,22.909476,121.12206,175.0,臺東縣,鹿野鄉,10014,10014050,晴,,,0.0,170.0,2.1,32.3,65.0,,,2.1,230.0,2026-07-02T09:23:00+08:00,4.1,140.0,2026-07-02T09:53:00+08:00,33.3,2026-07-02T10:17:00+08:00,22.5,2026-07-02T05:27:00+08:00
U2H480,臺大溪頭,2026-07-02T10:30:00+08:00,23.670306,120.798194,23.672071,120.790065,1150.0,南投縣,鹿谷鄉,10008,10008070,晴,,,0.0,340.0,0.3,23.5,90.0,,,1.5,360.0,2026-07-02T09:26:00+08:00,3.6,340.0,2026-07-02T09:06:00+08:00,26.0,2026-07-02T09:18:00+08:00,18.7,2026-07-02T05:21:00+08:00
72G600,臺中農改,2026-07-02T10:30:00+08:00,24.003028,120.534389,24.004779,120.526236,19.0,彰化縣,大村鄉,10007,10007130,多雲,,,0.0,310.0,2.9,31.7,74.0,,,1.5,290.0,2026-07-02T09:54:00+08:00,4.0,300.0,2026-07-02T09:59:00+08:00,33.0,2026-07-02T09:45:00+08:00,26.8,2026-07-02T02:41:00+08:00
72K220,雲林分場,2026-07-02T10:30:00+08:00,23.634556,120.477333,23.636304,120.469202,60.0,雲林縣,斗南鎮,10009,10009020,多雲,,,0.0,250.0,0.8,34.7,65.0,,,0.9,260.0,2026-07-02T09:56:00+08:00,2.9,250.0,2026-07-02T09:48:00+08:00,34.3,2026-07-02T10:30:00+08:00,26.4,2026-07-02T02:54:00+08:00
72N100,臺南農改,2026-07-02T10:30:00+08:00,23.0605,120.342194,23.062242,120.334096,41.0,臺南市,新化區,67000,67000180,晴,,,,,,32.4,70.0,,,,,,,,,33.6,2026-07-02T09:52:00+08:00,25.4,2026-07-02T05:28:00+08:00
72V140,旗南農改,2026-07-02T10:30:00+08:00,22.857861,120.516667,22.859612,120.508583,44.0,高雄市,旗山區,64000,64000300,晴,,,,300.0,1.4,32.8,64.0,,,2.3,290.0,2026-07-02T09:33:00+08:00,4.1,290.0,2026-07-02T09:24:00+08:00,33.2,2026-07-02T10:21:00+08:00,25.6,2026-07-02T05:36:00+08:00
72Q010,高雄農改,2026-07-02T10:30:00+08:00,22.709333,120.525889,22.711084,120.517814,45.0,屏東縣,長治鄉,10013,10013060,多雲,,,,310.0,1.0,33.4,59.0,,,1.3,330.0,2026-07-02T09:09:00+08:00,2.8,270.0,2026-07-02T09:06:00+08:00,33.8,2026-07-02T10:28:00+08:00,26.1,2026-07-02T05:24:00+08:00
B2E890,新竹畜試,2026-07-02T10:30:00+08:00,24.527806,120.770972,24.529569,120.762788,90.0,苗栗縣,西湖鄉,10005,10005140,多雲,,,0.0,320.0,1.9,30.4,81.0,,,2.2,300.0,2026-07-02T09:06:00+08:00,3.8,300.0,2026-07-02T09:50:00+08:00,30.8,2026-07-02T10:25:00+08:00,25.3,2026-07-02T02:19:00+08:00
72C440,桃園農改,2026-07-02T10:30:00+08:00,24.950944,121.030583,24.952721,121.022375,70.0,桃園市,新屋區,68000,68000110,晴,,,0.0,290.0,2.2,30.7,75.0,,,2.8,320.0,2026-07-02T09:29:00+08:00,5.4,340.0,2026-07-02T09:45:00+08:00,31.2,2026-07-02T10:09:00+08:00,25.9,2026-07-02T05:05:00+08:00
72D080,五峰站,2026-07-02T10:30:00+08:00,24.612194,121.157167,24.613978,121.148983,1048.0,新竹縣,五峰鄉,10004,10004130,多雲,,,0.0,330.0,0.6,24.3,89.0,,,0.8,310.0,2026-07-02T09:01:00+08:00,2.5,310.0,2026-07-02T09:42:00+08:00,27.0,2026-07-02T08:34:00+08:00,20.2,2026-07-02T04:06:00+08:00
82C160,茶改場,2026-07-02T10:30:00+08:00,24.908472,121.185333,24.910258,121.17713,195.0,桃園市,楊梅區,68000,68000040,多雲,,,0.0,260.0,1.5,30.9,64.0,,,1.8,290.0,2026-07-02T09:01:00+08:00,3.6,280.0,2026-07-02T09:37:00+08:00,31.0,2026-07-02T10:26:00+08:00,25.3,2026-07-02T03:54:00+08:00
A2C560,農工中心,2026-07-02T10:30:00+08:00,24.985917,121.239833,24.987706,121.231626,121.0,桃園市,中壢區,68000,68000020,晴,,,0.0,320.0,1.5,30.4,74.0,,,1.4,300.0,2026-07-02T09:34:00+08:00,3.6,320.0,2026-07-02T09:25:00+08:00,31.0,2026-07-02T10:19:00+08:00,26.6,2026-07-02T02:35:00+08:00
82A750,文山茶改,2026-07-02T10:30:00+08:00,24.955778,121.631222,24.957588,121.623022,401.0,新北市,石碇區,65000,65000190,晴,,,0.0,40.0,2.3,30.2,74.0,,,2.1,40.0,2026-07-02T09:52:00+08:00,4.0,60.0,2026-07-02T09:20:00+08:00,31.0,2026-07-02T10:19:00+08:00,23.2,2026-07-02T05:31:00+08:00
72U480,蘭陽分場,2026-07-02T10:30:00+08:00,24.686306,121.716583,24.688121,121.708402,27.0,宜蘭縣,三星鄉,10002,10002100,晴,,,0.0,50.0,1.8,32.6,63.0,,,1.6,100.0,2026-07-02T09:49:00+08:00,3.9,110.0,2026-07-02T09:57:00+08:00,33.0,2026-07-02T10:19:00+08:00,25.0,2026-07-02T05:16:00+08:00
K2E360,苗栗農改,2026-07-02T10:30:00+08:00,24.495722,120.829111,24.497488,120.82093,100.0,苗栗縣,公館鄉,10005,10005090,多雲,,,0.0,330.0,2.3,30.0,79.0,,,2.7,320.0,2026-07-02T09:55:00+08:00,5.1,300.0,2026-07-02T09:49:00+08:00,31.4,2026-07-02T09:33:00+08:00,24.9,2026-07-02T02:54:00+08:00
K2E710,大湖分場,2026-07-02T10:30:00+08:00,24.422861,120.871833,24.42463,120.863657,286.0,苗栗縣,大湖鄉,10005,10005080,多雲,,,,360.0,2.1,29.5,74.0,,,1.2,60.0,2026-07-02T09:07:00+08:00,2.8,320.0,2026-07-02T09:28:00+08:00,31.5,2026-07-02T09:29:00+08:00,22.3,2026-07-02T05:18:00+08:00
K2F750,種苗繁殖,2026-07-02T10:30:00+08:00,24.225972,120.800917,24.227737,120.792753,470.0,臺中市,新社區,66000,66000190,多雲,,,0.0,290.0,2.4,28.5,79.0,,,2.1,220.0,2026-07-02T09:13:00+08:00,3.8,220.0,2026-07-02T09:12:00+08:00,29.6,2026-07-02T09:22:00+08:00,23.4,2026-07-02T05:36:00+08:00
82H840,凍頂茶改,2026-07-02T10:30:00+08:00,23.762528,120.7405,23.76429,120.732364,390.0,南投縣,鹿谷鄉,10008,10008070,多雲,,,0.0,300.0,2.4,29.0,71.0,,,1.7,300.0,2026-07-02T09:49:00+08:00,4.0,310.0,2026-07-02T09:33:00+08:00,31.0,2026-07-02T10:21:00+08:00,23.2,2026-07-02T05:02:00+08:00
82H320,魚池茶改,2026-07-02T10:30:00+08:00,23.875611,120.913583,23.877382,120.905442,850.0,南投縣,魚池鄉,10008,10008090,晴,,,0.0,220.0,0.6,26.2,80.0,,,1.0,220.0,2026-07-02T09:34:00+08:00,2.4,250.0,2026-07-02T09:27:00+08:00,28.4,2026-07-02T09:05:00+08:00,21.4,2026-07-02T05:41:00+08:00
U2HA50,臺大竹山,2026-07-02T10:30:00+08:00,23.756972,120.681556,23.758731,120.67342,156.0,南投縣,竹山鎮,10008,10008040,多雲,,,,,,,,,,,,,,,,,,,
G2L020,嘉義農試,2026-07-02T10:30:00+08:00,23.485028,120.473806,23.486776,120.465684,79.0,嘉義市,東區,10020,10020010,多雲,,,0.0,250.0,1.8,32.1,67.0,,,1.4,240.0,2026-07-02T09:43:00+08:00,2.8,260.0,2026-07-02T09:34:00+08:00,34.8,2026-07-02T10:20:00+08:00,25.4,2026-07-02T02:54:00+08:00
72M360,義竹分場,2026-07-02T10:30:00+08:00,23.360694,120.279361,23.362432,120.271244,6.0,嘉義縣,義竹鄉,10010,10010100,晴,,,0.0,260.0,2.4,32.2,67.0,,,2.3,300.0,2026-07-02T10:00:00+08:00,3.8,300.0,2026-07-02T09:49:00+08:00,32.2,2026-07-02T10:30:00+08:00,26.2,2026-07-02T03:54:00+08:00
B2N890,畜試所,2026-07-02T10:30:00+08:00,23.058972,120.336406,23.060713,120.328308,31.0,臺南市,新化區,67000,67000180,晴,,,0.0,350.0,1.2,32.3,71.0,,,1.4,270.0,2026-07-02T09:58:00+08:00,3.0,240.0,2026-07-02T09:55:00+08:00,32.8,2026-07-02T09:49:00+08:00,25.1,2026-07-02T05:21:00+08:00
G2P820,鳳山農試,2026-07-02T10:30:00+08:00,22.646611,120.356083,22.648354,120.34801,37.0,高雄市,鳳山區,64000,64000120,晴,,,0.0,210.0,1.2,32.4,64.0,,,2.3,140.0,2026-07-02T09:52:00+08:00,4.7,140.0,2026-07-02T09:47:00+08:00,34.1,2026-07-02T09:53:00+08:00,26.7,2026-07-02T05:26:00+08:00
B2Q810,恆春畜試,2026-07-02T10:30:00+08:00,21.945583,120.802167,21.947348,120.794139,20.0,屏東縣,恆春鎮,10013,10013040,多雲,,,7.0,110.0,2.9,29.8,78.0,,,4.7,130.0,2026-07-02T09:44:00+08:00,10.1,160.0,2026-07-02T09:43:00+08:00,30.9,2026-07-02T09:31:00+08:00,25.1,2026-07-02T04:54:00+08:00
72T250,花蓮農改,2026-07-02T10:30:00+08:00,23.975222,121.563889,23.977028,121.555752,36.0,花蓮縣,吉安鄉,10015,10015050,晴,,,0.0,170.0,0.8,34.2,57.0,,,1.6,220.0,2026-07-02T09:34:00+08:00,4.9,240.0,2026-07-02T09:31:00+08:00,34.6,2026-07-02T10:00:00+08:00,24.8,2026-07-02T04:54:00+08:00
E2H360,蓮華池,2026-07-02T10:30:00+08:00,23.918333,120.885278,23.920106,120.877136,681.0,南投縣,魚池鄉,10008,10008090,晴,,,0.0,,,29.5,66.0,,,,,,,,,29.9,2026-07-02T09:24:00+08:00,22.4,2026-07-02T05:38:00+08:00
72HA00,埔里分場,2026-07-02T10:30:00+08:00,23.903208,120.963364,23.904982,120.955222,628.0,南投縣,魚池鄉,10008,10008090,晴,,,,,,,,,,,,,,,,,,,
U2HA30,臺大和社,2026-07-02T10:30:00+08:00,23.590856,120.888864,23.592633,120.880744,772.0,南投縣,信義鄉,10008,10008120,晴,,,0.0,80.0,0.5,30.6,71.0,,,1.1,100.0,2026-07-02T09:49:00+08:00,2.8,120.0,2026-07-02T09:46:00+08:00,30.7,2026-07-02T10:26:00+08:00,20.2,2026-07-02T05:52:00+08:00
U2HA40,臺大內茅埔,2026-07-02T10:30:00+08:00,23.689722,120.851117,23.691497,120.842992,507.0,南投縣,信義鄉,10008,10008120,晴,,,0.0,300.0,0.6,31.2,65.0,,,1.4,360.0,2026-07-02T09:06:00+08:00,4.0,20.0,2026-07-02T09:55:00+08:00,32.7,2026-07-02T10:25:00+08:00,22.5,2026-07-02T05:54:00+08:00
G2M350,溪口農場,2026-07-02T10:30:00+08:00,23.58565,120.408111,23.587406,120.399994,26.0,嘉義縣,溪口鄉,10010,10010060,多雲,,,0.0,260.0,1.9,32.8,66.0,,,1.6,320.0,2026-07-02T09:08:00+08:00,3.1,270.0,2026-07-02T09:20:00+08:00,32.8,2026-07-02T10:29:00+08:00,26.7,2026-07-02T03:11:00+08:00
E2K600,四湖植物園,2026-07-02T10:30:00+08:00,23.676986,120.163433,23.678718,120.155296,11.0,雲林縣,四湖鄉,10009,10009180,晴,,,0.0,310.0,1.5,31.6,87.0,,,1.5,290.0,2026-07-02T09:52:00+08:00,3.5,280.0,2026-07-02T09:48:00+08:00,31.8,2026-07-02T10:25:00+08:00,27.4,2026-07-02T02:27:00+08:00
G2F820,農業試驗所,2026-07-02T10:30:00+08:00,24.031261,120.688133,24.033022,120.679986,90.0,臺中市,霧峰區,66000,66000260,多雲,,,,,,,,,,,,,,,,,,,
72M700,嘉義分場,2026-07-02T10:30:00+08:00,23.416869,120.283061,23.418608,120.274941,14.0,嘉義縣,鹿草鄉,10010,10010110,晴,,,0.0,290.0,2.5,31.7,64.0,,,2.1,240.0,2026-07-02T09:58:00+08:00,3.3,240.0,2026-07-02T09:55:00+08:00,33.1,2026-07-02T09:02:00+08:00,26.7,2026-07-02T04:06:00+08:00
72N240,七股研究中心,2026-07-02T10:30:00+08:00,23.081672,120.062894,23.083472,120.054792,2.0,臺南市,七股區,67000,67000150,晴,,,0.0,280.0,1.2,32.0,73.0,,,2.4,300.0,2026-07-02T09:35:00+08:00,3.4,310.0,2026-07-02T09:34:00+08:00,32.3,2026-07-02T10:07:00+08:00,28.2,2026-07-02T04:09:00+08:00
42HA10,萬大發電廠,2026-07-02T10:30:00+08:00,23.978875,121.139639,23.980611,121.131497,1000.0,南投縣,仁愛鄉,10008,10008130,晴,,,0.0,120.0,0.3,,,,,1.5,330.0,2026-07-02T09:56:00+08:00,3.0,330.0,2026-07-02T09:34:00+08:00,,,,
12Q970,東港工作站,2026-07-02T10:30:00+08:00,22.479997,120.466058,22.481778,120.458017,16.0,屏東縣,東港鎮,10013,10013030,多雲,,,,180.0,5.2,30.8,74.0,,,3.6,200.0,2026-07-02T09:53:00+08:00,6.8,200.0,2026-07-02T09:57:00+08:00,33.7,2026-07-02T09:23:00+08:00,27.0,2026-07-02T05:17:00+08:00
12J990,口湖工作站,2026-07-02T10:30:00+08:00,23.589978,120.180394,23.591722,120.172281,10.0,雲林縣,口湖鄉,10009,10009190,晴,,,0.0,290.0,2.9,30.4,79.0,,,2.3,280.0,2026-07-02T09:46:00+08:00,4.4,270.0,2026-07-02T09:37:00+08:00,31.0,2026-07-02T08:40:00+08:00,27.3,2026-07-02T00:59:00+08:00
12Q980,恆春工作站,2026-07-02T10:30:00+08:00,22.079678,120.714425,22.081478,120.706406,16.0,屏東縣,車城鄉,10013,10013230,多雲,,,3.5,110.0,4.1,30.0,81.0,,,4.3,100.0,2026-07-02T09:14:00+08:00,8.0,90.0,2026-07-02T09:38:00+08:00,30.6,2026-07-02T10:24:00+08:00,26.4,2026-07-02T04:55:00+08:00
V2K610,大庄合作社,2026-07-02T10:30:00+08:00,23.8068,120.367939,23.80855,120.359808,23.0,雲林縣,二崙鄉,10009,10009110,多雲,,,0.0,290.0,3.2,31.4,79.0,,,2.1,290.0,2026-07-02T09:47:00+08:00,4.7,320.0,2026-07-02T09:55:00+08:00,31.6,2026-07-02T09:55:00+08:00,27.2,2026-07-02T03:08:00+08:00
V2K620,麥寮合作社,2026-07-02T10:30:00+08:00,23.753836,120.294783,23.755583,120.286657,9.0,雲林縣,麥寮鄉,10009,10009130,晴,,,0.0,330.0,2.9,30.1,83.0,,,2.4,290.0,2026-07-02T09:53:00+08:00,4.1,290.0,2026-07-02T09:44:00+08:00,31.3,2026-07-02T09:44:00+08:00,26.6,2026-07-02T03:01:00+08:00
E2S980,太麻里(1),2026-07-02T10:30:00+08:00,22.598922,120.980044,22.600724,120.971991,100.0,臺東縣,太麻里鄉,10014,10014090,多雲,,,0.0,70.0,0.6,32.6,71.0,,,0.8,100.0,2026-07-02T09:37:00+08:00,2.9,130.0,2026-07-02T09:34:00+08:00,33.5,2026-07-02T08:34:00+08:00,24.7,2026-07-02T04:01:00+08:00
E2S960,太麻里(2),2026-07-02T10:30:00+08:00,22.598,120.99775,22.599802,120.9897,26.0,臺東縣,太麻里鄉,10014,10014090,多雲,,,0.0,130.0,1.2,33.0,65.0,,,1.7,130.0,2026-07-02T09:35:00+08:00,3.0,150.0,2026-07-02T09:28:00+08:00,33.3,2026-07-02T10:28:00+08:00,25.2,2026-07-02T04:49:00+08:00
72AI40,桃改臺北,2026-07-02T10:30:00+08:00,24.944503,121.386972,24.946279,121.378755,40.0,新北市,樹林區,65000,65000070,晴,,,0.0,230.0,0.6,32.7,61.0,,,1.1,90.0,2026-07-02T09:43:00+08:00,2.4,20.0,2026-07-02T09:43:00+08:00,32.9,2026-07-02T10:28:00+08:00,24.2,2026-07-02T04:54:00+08:00
E2HA20,畢祿溪站,2026-07-02T10:30:00+08:00,24.226944,121.308522,24.22873,121.300362,2188.0,南投縣,仁愛鄉,10008,10008130,晴,,,0.0,0.0,0.0,23.5,48.0,,,0.5,60.0,2026-07-02T09:54:00+08:00,1.4,40.0,2026-07-02T09:54:00+08:00,23.8,2026-07-02T10:25:00+08:00,10.1,2026-07-02T04:45:00+08:00
A2N290,蘭花園區,2026-07-02T10:30:00+08:00,23.340258,120.379661,23.342018,120.371562,23.0,臺南市,後壁區,67000,67000050,多雲,,,0.0,250.0,0.8,32.1,71.0,,,1.6,290.0,2026-07-02T09:53:00+08:00,2.9,280.0,2026-07-02T09:46:00+08:00,32.1,2026-07-02T10:22:00+08:00,25.8,2026-07-02T04:24:00+08:00
B2U990,宜蘭畜試,2026-07-02T10:30:00+08:00,24.669039,121.832561,24.670842,121.824362,10.0,宜蘭縣,五結鄉,10002,10002090,晴,,,0.0,60.0,1.5,32.0,72.0,,,2.4,50.0,2026-07-02T09:50:00+08:00,3.7,50.0,2026-07-02T09:20:00+08:00,31.8,2026-07-02T10:30:00+08:00,25.3,2026-07-02T04:50:00+08:00
A2K630,雲林臺大,2026-07-02T10:30:00+08:00,23.730628,120.423903,23.732381,120.415777,45.0,雲林縣,虎尾鎮,10009,10009030,多雲,,,0.0,270.0,2.0,33.1,64.0,,,2.0,260.0,2026-07-02T09:53:00+08:00,3.2,250.0,2026-07-02T09:45:00+08:00,33.3,2026-07-02T10:17:00+08:00,26.5,2026-07-02T03:14:00+08:00
E2P980,六龜林試,2026-07-02T10:30:00+08:00,22.991703,120.645722,22.993482,120.637645,272.0,高雄市,六龜區,64000,64000320,晴,,,0.0,260.0,1.5,32.2,65.0,,,1.7,240.0,2026-07-02T09:38:00+08:00,3.7,250.0,2026-07-02T09:58:00+08:00,32.0,2026-07-02T10:30:00+08:00,22.9,2026-07-02T05:45:00+08:00
E2P990,扇平林試,2026-07-02T10:30:00+08:00,22.9677,120.685703,22.969481,120.677627,677.0,高雄市,茂林區,64000,64000360,晴,,,,,,,,,,,,,,,,,,,
A2K360,臺西水試,2026-07-02T10:30:00+08:00,23.717231,120.190522,23.718974,120.182399,1.0,雲林縣,臺西鄉,10009,10009160,晴,,,0.0,320.0,2.6,,,,,2.2,320.0,2026-07-02T10:00:00+08:00,3.7,330.0,2026-07-02T09:55:00+08:00,,,,
72D680,新埔工作站,2026-07-02T10:30:00+08:00,24.834444,121.066111,24.836,121.058,101.9,新竹縣,新埔鎮,10004,10004030,多雲,,,0.0,310.0,1.2,31.1,70.0,,,2.0,310.0,2026-07-02T09:45:00+08:00,3.6,300.0,2026-07-02T09:39:00+08:00,31.1,2026-07-02T10:30:00+08:00,24.4,2026-07-02T05:09:00+08:00
CAN130,水試所海水繁養殖中心,2026-07-02T10:30:00+08:00,23.120802,120.079676,23.122553,120.071594,2.3,臺南市,七股區,67000,67000150,晴,,,,310.0,3.2,30.3,89.0,,,2.7,320.0,2026-07-02T09:59:00+08:00,3.5,320.0,2026-07-02T09:53:00+08:00,31.4,2026-07-02T08:21:00+08:00,28.1,2026-07-02T03:52:00+08:00
CAL110,布袋國中,2026-07-02T10:30:00+08:00,23.35893,120.18026,23.360676,120.17216,1.1,嘉義縣,布袋鎮,10010,10010030,晴,,,0.0,270.0,1.8,30.7,78.0,,,2.5,300.0,2026-07-02T09:54:00+08:00,3.8,300.0,2026-07-02T09:39:00+08:00,31.2,2026-07-02T09:38:00+08:00,27.5,2026-07-02T04:29:00+08:00
CAG100,王功漁港,2026-07-02T10:30:00+08:00,23.96824,120.32586,23.969984,120.317718,7.0,彰化縣,芳苑鄉,10007,10007230,晴,,,0.0,330.0,4.1,,,,,3.6,330.0,2026-07-02T09:53:00+08:00,5.6,320.0,2026-07-02T09:34:00+08:00,,,,
CAJ050,海口故事園區,2026-07-02T10:30:00+08:00,23.57543,120.14121,23.577174,120.133097,4.0,雲林縣,口湖鄉,10009,10009190,晴,,,,,,,,,,,,,,,,,,,
CAN140,六官養殖協會,2026-07-02T10:30:00+08:00,23.22881,120.29962,23.230568,120.29153,24.0,臺南市,六甲區,67000,67000090,晴,,,0.0,280.0,2.8,,,,,2.4,310.0,2026-07-02T09:59:00+08:00,3.6,310.0,2026-07-02T09:54:00+08:00,,,,
CAQ030,崎峰國小,2026-07-02T10:30:00+08:00,22.42565,120.49521,22.427434,120.487171,10.0,屏東縣,林邊鄉,10013,10013190,多雲,,,0.0,170.0,6.8,,,,,7.1,160.0,2026-07-02T09:48:00+08:00,13.5,180.0,2026-07-02T09:53:00+08:00,,,,
C2M960,外寮,2026-07-02T10:30:00+08:00,23.562643,120.665688,23.564411,120.657572,1126.0,嘉義縣,梅山鄉,10010,10010150,多雲,,,0.0,250.0,2.4,24.7,89.0,,,2.2,250.0,2026-07-02T09:01:00+08:00,3.1,240.0,2026-07-02T09:04:00+08:00,26.9,2026-07-02T08:00:00+08:00,21.1,2026-07-02T05:23:00+08:00
C2M970,碧湖,2026-07-02T10:30:00+08:00,23.568632,120.624165,23.570397,120.616047,1019.0,嘉義縣,梅山鄉,10010,10010150,多雲,,,0.0,230.0,2.1,25.6,83.0,,,1.9,210.0,2026-07-02T10:00:00+08:00,3.4,40.0,2026-07-02T09:22:00+08:00,27.1,2026-07-02T08:39:00+08:00,22.0,2026-07-02T02:53:00+08:00
C2R170,屏東,2026-07-02T10:30:00+08:00,22.660269,120.494027,22.662048,120.485974,35.0,屏東縣,屏東市,10013,10013010,多雲,,,0.0,320.0,0.4,33.6,60.0,,,0.7,190.0,2026-07-02T09:47:00+08:00,2.3,160.0,2026-07-02T09:46:00+08:00,33.7,2026-07-02T10:25:00+08:00,26.4,2026-07-02T05:20:00+08:00
C2V310,美濃,2026-07-02T10:30:00+08:00,22.898792,120.51907,22.900567,120.511,51.0,高雄市,美濃區,64000,64000310,晴,,,0.0,280.0,1.7,32.5,64.0,,,2.2,340.0,2026-07-02T09:02:00+08:00,3.6,330.0,2026-07-02T10:00:00+08:00,32.7,2026-07-02T09:35:00+08:00,25.7,2026-07-02T05:19:00+08:00
C2M980,安和,2026-07-02T10:30:00+08:00,23.51377,120.31593,23.515523,120.30782,42.0,嘉義縣,新港鄉,10010,10010070,晴,,,0.0,270.0,2.7,31.6,69.0,,,1.7,260.0,2026-07-02T09:32:00+08:00,3.0,290.0,2026-07-02T09:28:00+08:00,32.4,2026-07-02T10:09:00+08:00,27.2,2026-07-02T02:52:00+08:00
C2M990,大巃頂,2026-07-02T10:30:00+08:00,23.5547,120.61439,23.556466,120.606275,1018.0,嘉義縣,梅山鄉,10010,10010150,多雲,,,0.0,240.0,2.2,24.2,92.0,,,3.2,210.0,2026-07-02T09:03:00+08:00,5.0,230.0,2026-07-02T09:04:00+08:00,25.6,2026-07-02T07:46:00+08:00,21.8,2026-07-02T05:36:00+08:00
C2N170,茅港尾,2026-07-02T10:30:00+08:00,23.2061,120.2624,23.207857,120.254311,69.0,臺南市,下營區,67000,67000080,晴,,,0.0,310.0,2.0,32.2,72.0,,,1.8,280.0,2026-07-02T09:51:00+08:00,3.4,270.0,2026-07-02T09:43:00+08:00,32.2,2026-07-02T09:42:00+08:00,26.4,2026-07-02T03:25:00+08:00
C2R980,竹田國中,2026-07-02T10:30:00+08:00,22.61532,120.52412,22.617101,120.516069,18.0,屏東縣,竹田鄉,10013,10013140,多雲,,,0.0,120.0,0.5,35.3,51.0,,,1.5,170.0,2026-07-02T09:48:00+08:00,3.5,220.0,2026-07-02T09:42:00+08:00,36.8,2026-07-02T10:22:00+08:00,27.2,2026-07-02T04:06:00+08:00
C2R990,泰武,2026-07-02T10:30:00+08:00,22.60686,120.69765,22.608649,120.689598,952.0,屏東縣,泰武鄉,10013,10013290,多雲,,,0.0,200.0,1.3,25.9,84.0,,,1.5,200.0,2026-07-02T09:46:00+08:00,3.6,190.0,2026-07-02T09:44:00+08:00,27.6,2026-07-02T10:23:00+08:00,19.8,2026-07-02T04:36:00+08:00
C2TA60,六十石,2026-07-02T10:30:00+08:00,23.22477,121.31861,23.226575,121.310513,919.0,花蓮縣,富里鄉,10015,10015100,晴,,,0.0,230.0,4.0,25.9,80.0,,,4.3,230.0,2026-07-02T09:53:00+08:00,6.7,220.0,2026-07-02T09:48:00+08:00,26.6,2026-07-02T09:14:00+08:00,20.7,2026-07-02T02:34:00+08:00
C2TA70,赤科坪,2026-07-02T10:30:00+08:00,23.39885,121.39168,23.400655,121.383571,872.0,花蓮縣,玉里鎮,10015,10015030,晴,,,0.0,210.0,2.1,26.3,78.0,,,2.9,200.0,2026-07-02T09:54:00+08:00,5.9,200.0,2026-07-02T09:51:00+08:00,27.5,2026-07-02T10:02:00+08:00,21.0,2026-07-02T04:04:00+08:00
C2UC10,出水溪,2026-07-02T10:30:00+08:00,24.615822,121.652253,24.617617,121.644058,556.0,宜蘭縣,大同鄉,10002,10002110,晴,,,0.0,,,29.7,76.0,,,,,,,,,30.1,2026-07-02T10:04:00+08:00,21.1,2026-07-02T04:43:00+08:00
C2UC20,長嶺,2026-07-02T10:30:00+08:00,24.70894,121.61162,24.710732,121.603419,465.0,宜蘭縣,員山鄉,10002,10002070,晴,,,0.0,250.0,0.9,30.3,73.0,,,0.9,170.0,2026-07-02T09:03:00+08:00,2.1,270.0,2026-07-02T10:00:00+08:00,30.3,2026-07-02T10:28:00+08:00,22.7,2026-07-02T05:24:00+08:00
C2E980,和興,2026-07-02T10:30:00+08:00,24.505319,120.923016,24.507081,120.914833,640.0,苗栗縣,獅潭鄉,10005,10005170,多雲,,,0.0,20.0,0.9,29.4,76.0,,,1.6,20.0,2026-07-02T09:07:00+08:00,3.2,30.0,2026-07-02T09:06:00+08:00,29.6,2026-07-02T09:44:00+08:00,22.8,2026-07-02T05:12:00+08:00
C2E990,新坪頂,2026-07-02T10:30:00+08:00,24.30201,120.8574,24.303773,120.849231,549.0,苗栗縣,卓蘭鎮,10005,10005070,多雲,,,0.0,310.0,1.4,28.3,79.0,,,1.3,280.0,2026-07-02T09:16:00+08:00,3.0,230.0,2026-07-02T09:50:00+08:00,29.7,2026-07-02T10:05:00+08:00,22.8,2026-07-02T05:20:00+08:00
C2H9Y0,松茗,2026-07-02T10:30:00+08:00,23.8167,120.650765,23.818463,120.642632,415.0,南投縣,名間鄉,10008,10008060,多雲,,,0.0,190.0,1.4,29.9,75.0,,,2.0,240.0,2026-07-02T09:44:00+08:00,4.2,330.0,2026-07-02T09:41:00+08:00,30.6,2026-07-02T10:10:00+08:00,24.3,2026-07-02T04:30:00+08:00
C2RA10,大新,2026-07-02T10:30:00+08:00,22.67558,120.57788,22.677362,120.569824,51.0,屏東縣,內埔鄉,10013,10013130,多雲,,,0.0,110.0,0.8,34.2,54.0,,,2.3,290.0,2026-07-02T09:53:00+08:00,3.7,220.0,2026-07-02T09:45:00+08:00,34.2,2026-07-02T10:29:00+08:00,24.7,2026-07-02T05:03:00+08:00
C2TA90,加納納,2026-07-02T10:30:00+08:00,23.466421,121.359867,23.468223,121.351754,216.0,花蓮縣,瑞穗鄉,10015,10015090,晴,,,0.0,210.0,3.5,32.4,60.0,,,2.5,220.0,2026-07-02T09:57:00+08:00,5.5,200.0,2026-07-02T10:00:00+08:00,32.7,2026-07-02T10:19:00+08:00,22.9,2026-07-02T05:22:00+08:00
C2TB30,吉安,2026-07-02T10:30:00+08:00,23.94538,121.54803,23.947182,121.539883,75.0,花蓮縣,吉安鄉,10015,10015050,晴,,,0.0,170.0,1.5,33.2,60.0,,,1.3,180.0,2026-07-02T09:01:00+08:00,3.9,180.0,2026-07-02T09:13:00+08:00,33.7,2026-07-02T10:17:00+08:00,25.1,2026-07-02T05:38:00+08:00
C2K290,崙內,2026-07-02T10:30:00+08:00,23.69525,120.35601,23.697001,120.347887,14.0,雲林縣,土庫鎮,10009,10009050,多雲,,,0.0,280.0,2.5,32.8,71.0,,,2.3,260.0,2026-07-02T10:00:00+08:00,4.2,240.0,2026-07-02T09:59:00+08:00,33.2,2026-07-02T10:17:00+08:00,26.7,2026-07-02T02:43:00+08:00
C2K301,鹿南,2026-07-02T10:30:00+08:00,23.643341,120.3683,23.645083,120.360167,14.0,雲林縣,元長鄉,10009,10009170,多雲,,,0.0,270.0,2.0,32.7,67.0,,,1.8,240.0,2026-07-02T10:00:00+08:00,3.7,230.0,2026-07-02T09:59:00+08:00,32.7,2026-07-02T10:30:00+08:00,27.1,2026-07-02T02:00:00+08:00
C2K250,崙背,2026-07-02T10:30:00+08:00,23.75553,120.31893,23.757278,120.310803,8.0,雲林縣,崙背鄉,10009,10009120,晴,,,0.0,320.0,2.9,31.1,79.0,,,2.0,280.0,2026-07-02T09:54:00+08:00,3.5,330.0,2026-07-02T10:00:00+08:00,32.6,2026-07-02T08:47:00+08:00,26.2,2026-07-02T03:29:00+08:00
C2K280,四湖,2026-07-02T10:30:00+08:00,23.6304,120.22717,23.632147,120.219053,3.0,雲林縣,四湖鄉,10009,10009180,晴,,,0.0,260.0,1.4,33.1,68.0,,,1.6,260.0,2026-07-02T09:39:00+08:00,3.2,260.0,2026-07-02T09:59:00+08:00,33.1,2026-07-02T10:30:00+08:00,26.7,2026-07-02T02:36:00+08:00
C2X060,下營,2026-07-02T10:30:00+08:00,23.226806,120.256291,23.228563,120.248201,3.0,臺南市,下營區,67000,67000080,晴,,,0.0,300.0,2.7,32.0,71.0,,,2.2,300.0,2026-07-02T10:00:00+08:00,4.1,300.0,2026-07-02T09:54:00+08:00,32.4,2026-07-02T09:44:00+08:00,26.9,2026-07-02T03:44:00+08:00
C2S9B0,利吉,2026-07-02T10:30:00+08:00,22.86246,121.15486,22.864264,121.146788,166.0,臺東縣,卑南鄉,10014,10014040,晴,,,0.0,80.0,3.3,32.1,68.0,,,1.8,280.0,2026-07-02T09:23:00+08:00,4.7,100.0,2026-07-02T10:00:00+08:00,32.3,2026-07-02T10:26:00+08:00,22.7,2026-07-02T05:45:00+08:00
C2S9A0,北份子寮,2026-07-02T10:30:00+08:00,22.78561,121.07813,22.787412,121.070064,104.0,臺東縣,卑南鄉,10014,10014040,多雲,,,0.0,160.0,3.2,32.8,63.0,,,3.1,130.0,2026-07-02T09:48:00+08:00,5.8,140.0,2026-07-02T10:00:00+08:00,32.9,2026-07-02T10:25:00+08:00,24.2,2026-07-02T03:48:00+08:00
C2SD50,順那,2026-07-02T10:30:00+08:00,23.04166,121.29332,23.043467,121.285235,148.0,臺東縣,東河鄉,10014,10014070,晴,,,0.0,110.0,2.5,32.6,64.0,,,2.0,240.0,2026-07-02T09:59:00+08:00,3.6,230.0,2026-07-02T09:56:00+08:00,32.8,2026-07-02T09:46:00+08:00,22.4,2026-07-02T04:05:00+08:00
C2SD70,二層坪,2026-07-02T10:30:00+08:00,22.94105,121.16838,22.942853,121.160303,209.0,臺東縣,鹿野鄉,10014,10014050,晴,,,0.0,230.0,2.8,31.4,70.0,,,3.0,230.0,2026-07-02T09:59:00+08:00,5.4,240.0,2026-07-02T09:52:00+08:00,31.6,2026-07-02T10:25:00+08:00,23.1,2026-07-02T05:08:00+08:00
C2SD60,明峰,2026-07-02T10:30:00+08:00,22.8671,121.11825,22.868903,121.110178,291.0,臺東縣,卑南鄉,10014,10014040,晴,,,0.0,180.0,3.0,29.9,74.0,,,2.7,170.0,2026-07-02T09:50:00+08:00,4.6,180.0,2026-07-02T09:01:00+08:00,30.7,2026-07-02T09:55:00+08:00,21.7,2026-07-02T04:56:00+08:00
C2SD80,再來山,2026-07-02T10:30:00+08:00,23.34371,121.44122,23.345518,121.433115,215.0,臺東縣,長濱鄉,10014,10014080,晴,,,0.0,140.0,2.3,30.2,74.0,,,3.0,130.0,2026-07-02T09:17:00+08:00,6.9,150.0,2026-07-02T09:55:00+08:00,30.3,2026-07-02T10:08:00+08:00,23.9,2026-07-02T00:33:00+08:00
C2TB80,庄子底,2026-07-02T10:30:00+08:00,23.71794,121.49438,23.719744,121.486249,88.0,花蓮縣,鳳林鎮,10015,10015020,晴,,,0.0,200.0,2.2,32.4,65.0,,,2.3,250.0,2026-07-02T09:36:00+08:00,4.6,240.0,2026-07-02T09:55:00+08:00,32.4,2026-07-02T10:29:00+08:00,23.6,2026-07-02T05:17:00+08:00
C2TB90,長橋,2026-07-02T10:30:00+08:00,23.6874,121.46186,23.689203,121.453731,108.0,花蓮縣,鳳林鎮,10015,10015020,晴,,,0.0,130.0,1.3,33.0,68.0,,,1.8,230.0,2026-07-02T09:13:00+08:00,4.6,230.0,2026-07-02T09:29:00+08:00,33.2,2026-07-02T10:12:00+08:00,23.0,2026-07-02T01:38:00+08:00
C2TB50,麻汝,2026-07-02T10:30:00+08:00,23.42554,121.39358,23.427345,121.38547,291.0,花蓮縣,玉里鎮,10015,10015030,晴,,,0.0,120.0,2.5,31.4,66.0,,,1.6,120.0,2026-07-02T09:01:00+08:00,3.0,260.0,2026-07-02T09:42:00+08:00,32.3,2026-07-02T10:23:00+08:00,23.1,2026-07-02T05:17:00+08:00
C2TB70,達谷寮,2026-07-02T10:30:00+08:00,23.38,121.35968,23.381804,121.351573,145.0,花蓮縣,玉里鎮,10015,10015030,晴,,,0.0,230.0,2.7,33.1,62.0,,,3.5,200.0,2026-07-02T09:13:00+08:00,6.8,210.0,2026-07-02T09:05:00+08:00,34.1,2026-07-02T10:21:00+08:00,23.4,2026-07-02T04:08:00+08:00
C2TB60,南安,2026-07-02T10:30:00+08:00,23.29818,121.26157,23.299981,121.253469,216.0,花蓮縣,卓溪鄉,10015,10015130,晴,,,0.0,140.0,3.4,32.4,58.0,,,2.9,140.0,2026-07-02T09:58:00+08:00,5.9,110.0,2026-07-02T09:51:00+08:00,32.7,2026-07-02T10:27:00+08:00,22.9,2026-07-02T05:10:00+08:00
C2H9X0,福盛,2026-07-02T10:30:00+08:00,23.89353,120.84077,23.8953,120.83263,706.0,南投縣,中寮鄉,10008,10008080,晴,,,,,,,,,,,,,,,,,,,
C2G9C0,埔南,2026-07-02T10:30:00+08:00,23.99124,120.46969,23.992991,120.461546,9.0,彰化縣,埔鹽鄉,10007,10007140,多雲,,,0.0,320.0,3.2,30.8,77.0,,,3.0,300.0,2026-07-02T09:51:00+08:00,4.5,320.0,2026-07-02T09:50:00+08:00,32.0,2026-07-02T08:59:00+08:00,26.9,2026-07-02T02:49:00+08:00
C2G9E0,移民庄,2026-07-02T10:30:00+08:00,23.9784,120.40283,23.980148,120.394687,8.0,彰化縣,二林鎮,10007,10007200,晴,,,0.0,300.0,3.3,31.1,75.0,,,3.0,320.0,2026-07-02T09:50:00+08:00,4.8,310.0,2026-07-02T09:43:00+08:00,31.7,2026-07-02T10:21:00+08:00,27.4,2026-07-02T02:02:00+08:00
C2K310,港尾布雞,2026-07-02T10:30:00+08:00,23.74834,120.38439,23.750092,120.376263,34.0,雲林縣,崙背鄉,10009,10009120,多雲,,,0.0,270.0,2.5,31.6,75.0,,,1.8,190.0,2026-07-02T09:57:00+08:00,4.0,190.0,2026-07-02T09:55:00+08:00,32.4,2026-07-02T10:09:00+08:00,26.4,2026-07-02T02:45:00+08:00
C2M9A0,大華,2026-07-02T10:30:00+08:00,23.4824,120.67491,23.484171,120.6668,987.0,嘉義縣,竹崎鄉,10010,10010140,多雲,,,0.0,100.0,0.6,23.8,91.0,,,0.9,110.0,2026-07-02T09:22:00+08:00,2.4,110.0,2026-07-02T09:41:00+08:00,27.3,2026-07-02T08:00:00+08:00,21.2,2026-07-02T04:52:00+08:00
C2M9D0,何竹子腳,2026-07-02T10:30:00+08:00,23.53641,120.38203,23.538166,120.373918,20.0,嘉義縣,民雄鄉,10010,10010050,多雲,,,0.0,300.0,1.9,33.5,63.0,,,2.3,250.0,2026-07-02T09:59:00+08:00,4.0,250.0,2026-07-02T09:51:00+08:00,33.7,2026-07-02T10:22:00+08:00,26.6,2026-07-02T02:55:00+08:00
C2M9C0,紫雲,2026-07-02T10:30:00+08:00,23.494914,120.540253,23.496678,120.532142,104.0,嘉義縣,竹崎鄉,10010,10010140,多雲,,,0.0,20.0,1.1,31.6,73.0,,,1.3,180.0,2026-07-02T09:01:00+08:00,2.5,160.0,2026-07-02T09:26:00+08:00,31.8,2026-07-02T08:26:00+08:00,25.1,2026-07-02T03:34:00+08:00
C2M9E0,旺來山,2026-07-02T10:30:00+08:00,23.555153,120.486463,23.556913,120.478349,125.0,嘉義縣,民雄鄉,10010,10010050,多雲,,,,220.0,2.3,31.1,71.0,,,2.2,270.0,2026-07-02T09:55:00+08:00,4.2,270.0,2026-07-02T09:56:00+08:00,31.9,2026-07-02T09:31:00+08:00,26.1,2026-07-02T05:30:00+08:00
C2M9B0,西興,2026-07-02T10:30:00+08:00,23.2428,120.57617,23.244571,120.568077,454.0,嘉義縣,大埔鄉,10010,10010170,晴,,,0.0,160.0,0.8,29.8,73.0,,,1.0,160.0,2026-07-02T09:16:00+08:00,2.0,100.0,2026-07-02T09:40:00+08:00,30.4,2026-07-02T09:31:00+08:00,23.1,2026-07-02T04:57:00+08:00
C2N190,烏樹,2026-07-02T10:30:00+08:00,23.32393,120.36989,23.32569,120.361793,22.0,臺南市,後壁區,67000,67000050,多雲,,,0.0,290.0,1.3,32.2,74.0,,,2.2,310.0,2026-07-02T09:46:00+08:00,3.5,320.0,2026-07-02T09:39:00+08:00,32.4,2026-07-02T09:37:00+08:00,25.5,2026-07-02T04:21:00+08:00
C2N180,鹿陶洋,2026-07-02T10:30:00+08:00,23.14325,120.48352,23.145019,120.475434,85.0,臺南市,楠西區,67000,67000240,晴,,,0.0,330.0,0.9,33.4,63.0,,,1.4,240.0,2026-07-02T09:51:00+08:00,2.6,250.0,2026-07-02T09:22:00+08:00,34.4,2026-07-02T09:35:00+08:00,24.5,2026-07-02T04:47:00+08:00
C2V920,匏子寮,2026-07-02T10:30:00+08:00,23.04905,120.55319,23.050824,120.54511,212.0,高雄市,甲仙區,64000,64000330,晴,,,0.0,300.0,1.6,30.4,71.0,,,1.4,330.0,2026-07-02T09:22:00+08:00,4.0,310.0,2026-07-02T09:21:00+08:00,33.0,2026-07-02T10:14:00+08:00,24.1,2026-07-02T05:23:00+08:00
C2V580,瑞山,2026-07-02T10:30:00+08:00,22.90304,120.43424,22.904811,120.42617,108.0,高雄市,內門區,64000,64000350,晴,,,0.0,20.0,0.9,32.7,68.0,,,2.0,320.0,2026-07-02T09:07:00+08:00,3.9,270.0,2026-07-02T09:26:00+08:00,32.8,2026-07-02T10:29:00+08:00,25.1,2026-07-02T05:06:00+08:00
C2R9A0,高士國小,2026-07-02T10:30:00+08:00,22.12553,120.84653,22.127335,120.838508,167.0,屏東縣,牡丹鄉,10013,10013330,陰有雨,,,35.0,160.0,0.9,26.5,98.0,,,1.8,20.0,2026-07-02T09:01:00+08:00,4.4,290.0,2026-07-02T09:12:00+08:00,26.6,2026-07-02T01:23:00+08:00,24.6,2026-07-02T05:13:00+08:00
C2M530,奮起湖,2026-07-02T10:30:00+08:00,23.493903,120.699253,23.495674,120.691142,1385.0,嘉義縣,竹崎鄉,10010,10010140,多雲,,,0.0,200.0,0.7,21.4,96.0,,,1.2,190.0,2026-07-02T09:01:00+08:00,2.9,160.0,2026-07-02T09:32:00+08:00,24.1,2026-07-02T09:22:00+08:00,18.1,2026-07-02T04:56:00+08:00
C2M810,里佳,2026-07-02T10:30:00+08:00,23.389125,120.716647,23.390899,120.708543,1354.0,嘉義縣,阿里山鄉,10010,10010180,晴,,,0.0,280.0,2.4,22.5,89.0,,,1.9,290.0,2026-07-02T09:38:00+08:00,3.2,280.0,2026-07-02T09:36:00+08:00,24.9,2026-07-02T07:56:00+08:00,19.8,2026-07-02T04:36:00+08:00
C2C590,觀音,2026-07-02T10:30:00+08:00,25.027072,121.153317,25.028835,121.145094,72.0,桃園市,觀音區,68000,68000120,晴,,,0.0,310.0,1.9,31.8,73.0,,,1.9,320.0,2026-07-02T09:49:00+08:00,4.3,300.0,2026-07-02T09:09:00+08:00,32.3,2026-07-02T09:49:00+08:00,25.1,2026-07-02T05:11:00+08:00
C2E420,竹南,2026-07-02T10:30:00+08:00,24.70898,120.88897,24.710737,120.880772,19.0,苗栗縣,竹南鎮,10005,10005040,多雲,,,0.0,320.0,1.4,30.3,78.0,,,1.7,20.0,2026-07-02T09:32:00+08:00,3.5,50.0,2026-07-02T09:58:00+08:00,30.5,2026-07-02T10:08:00+08:00,26.2,2026-07-02T05:20:00+08:00
C2E430,南庄,2026-07-02T10:30:00+08:00,24.601775,121.000214,24.603539,120.992023,258.0,苗栗縣,南庄鄉,10005,10005110,多雲,,,0.0,350.0,1.3,29.6,78.0,,,1.3,350.0,2026-07-02T09:18:00+08:00,2.8,340.0,2026-07-02T09:10:00+08:00,29.6,2026-07-02T10:28:00+08:00,22.6,2026-07-02T05:08:00+08:00
C2AA10,中八仙,2026-07-02T10:30:00+08:00,25.11576,121.49199,25.117538,121.48376,16.0,臺北市,北投區,63000,63000120,晴,,,0.0,310.0,2.8,31.5,77.0,,,2.8,290.0,2026-07-02T09:08:00+08:00,5.1,280.0,2026-07-02T09:06:00+08:00,31.8,2026-07-02T10:21:00+08:00,24.1,2026-07-02T04:57:00+08:00
C2AK40,漁光,2026-07-02T10:30:00+08:00,24.96875,121.72132,24.970542,121.713099,723.0,新北市,坪林區,65000,65000200,晴,,,0.0,270.0,2.0,28.9,73.0,,,2.1,290.0,2026-07-02T09:36:00+08:00,4.5,270.0,2026-07-02T10:00:00+08:00,30.2,2026-07-02T07:19:00+08:00,23.7,2026-07-02T01:21:00+08:00
C2AK30,信賢,2026-07-02T10:30:00+08:00,24.84108,121.53492,24.842865,121.526709,356.0,新北市,烏來區,65000,65000290,晴,,,0.0,80.0,2.9,30.9,67.0,,,3.2,80.0,2026-07-02T09:14:00+08:00,5.5,60.0,2026-07-02T09:26:00+08:00,31.0,2026-07-02T10:27:00+08:00,22.4,2026-07-02T05:20:00+08:00
C2C830,中德,2026-07-02T10:30:00+08:00,24.981862,121.291344,24.983633,121.283124,117.0,桃園市,桃園區,68000,68000010,晴,,,0.0,330.0,2.0,31.9,70.0,,,2.7,320.0,2026-07-02T09:59:00+08:00,5.0,300.0,2026-07-02T09:54:00+08:00,32.1,2026-07-02T10:28:00+08:00,26.9,2026-07-02T03:35:00+08:00
C2C810,八德蔬果,2026-07-02T10:30:00+08:00,24.97858,121.28187,24.98035,121.27365,123.0,桃園市,八德區,68000,68000080,晴,,,0.0,310.0,1.5,32.6,68.0,,,1.4,310.0,2026-07-02T09:11:00+08:00,3.5,310.0,2026-07-02T09:56:00+08:00,32.6,2026-07-02T10:29:00+08:00,26.4,2026-07-02T01:23:00+08:00
C2D770,巨埔,2026-07-02T10:30:00+08:00,24.84435,121.11442,24.846203,121.10621,101.0,新竹縣,新埔鎮,10004,10004030,多雲,,,0.0,320.0,1.6,30.1,79.0,,,1.7,290.0,2026-07-02T09:58:00+08:00,3.2,310.0,2026-07-02T09:58:00+08:00,31.6,2026-07-02T10:03:00+08:00,24.6,2026-07-02T05:06:00+08:00
C2EA10,拉庫斯,2026-07-02T10:30:00+08:00,24.53637,121.02137,24.538136,121.013183,1187.0,苗栗縣,南庄鄉,10005,10005110,多雲,,,0.0,130.0,1.6,22.5,97.0,,,2.5,160.0,2026-07-02T09:51:00+08:00,4.8,170.0,2026-07-02T09:51:00+08:00,24.8,2026-07-02T08:40:00+08:00,20.7,2026-07-02T04:48:00+08:00
C2UC40,中城,2026-07-02T10:30:00+08:00,24.62865,121.74745,24.630449,121.739254,44.0,宜蘭縣,冬山鄉,10002,10002080,晴,,,0.0,20.0,1.3,33.4,60.0,,,1.7,100.0,2026-07-02T09:51:00+08:00,3.5,80.0,2026-07-02T09:58:00+08:00,33.6,2026-07-02T10:28:00+08:00,24.2,2026-07-02T05:07:00+08:00
C2UC30,金洋,2026-07-02T10:30:00+08:00,24.42465,121.74573,24.426453,121.737548,109.0,宜蘭縣,南澳鄉,10002,10002120,晴,,,0.0,50.0,1.3,31.8,65.0,,,1.6,20.0,2026-07-02T09:50:00+08:00,4.0,10.0,2026-07-02T09:53:00+08:00,32.0,2026-07-02T09:27:00+08:00,23.2,2026-07-02T05:19:00+08:00
C2D480,打鐵坑,2026-07-02T10:30:00+08:00,24.849664,121.150789,24.85175,121.142611,223.0,新竹縣,新埔鎮,10004,10004030,多雲,,,0.0,250.0,1.4,29.6,79.0,,,1.6,260.0,2026-07-02T09:16:00+08:00,3.0,230.0,2026-07-02T09:17:00+08:00,30.4,2026-07-02T09:54:00+08:00,24.3,2026-07-02T04:19:00+08:00
C2D430,峨眉,2026-07-02T10:30:00+08:00,24.6905,121.017189,24.692389,121.009083,87.0,新竹縣,峨眉鄉,10004,10004110,多雲,,,0.0,180.0,0.3,29.8,83.0,,,0.5,360.0,2026-07-02T09:22:00+08:00,1.6,330.0,2026-07-02T09:38:00+08:00,30.5,2026-07-02T10:00:00+08:00,24.1,2026-07-02T04:38:00+08:00
C2C480,桃園,2026-07-02T10:30:00+08:00,24.992425,121.323172,24.994256,121.315044,105.0,桃園市,桃園區,68000,68000010,晴,,,0.0,330.0,0.7,34.1,60.0,,,1.0,280.0,2026-07-02T09:51:00+08:00,2.1,260.0,2026-07-02T09:52:00+08:00,34.1,2026-07-02T10:30:00+08:00,27.3,2026-07-02T05:35:00+08:00
C2S890,關山,2026-07-02T10:30:00+08:00,23.0395,121.175017,23.041302,121.166934,217.0,臺東縣,關山鎮,10014,10014030,晴,,,0.0,180.0,1.9,31.8,65.0,,,2.0,210.0,2026-07-02T09:33:00+08:00,4.3,210.0,2026-07-02T09:44:00+08:00,32.1,2026-07-02T10:26:00+08:00,23.3,2026-07-02T05:03:00+08:00
C2O880,南化,2026-07-02T10:30:00+08:00,23.17332,120.59413,23.175093,120.586041,269.0,臺南市,南化區,67000,67000250,晴,,,0.0,210.0,0.8,32.5,65.0,,,1.1,200.0,2026-07-02T09:01:00+08:00,2.8,210.0,2026-07-02T09:49:00+08:00,33.6,2026-07-02T10:25:00+08:00,23.5,2026-07-02T05:35:00+08:00
C2SA40,瑞和,2026-07-02T10:30:00+08:00,22.974361,121.156697,22.976163,121.148618,189.0,臺東縣,鹿野鄉,10014,10014050,晴,,,0.0,200.0,2.4,32.2,61.0,,,2.1,180.0,2026-07-02T09:25:00+08:00,5.0,230.0,2026-07-02T09:55:00+08:00,32.4,2026-07-02T10:16:00+08:00,22.7,2026-07-02T04:48:00+08:00
C2R550,新埤,2026-07-02T10:30:00+08:00,22.467947,120.582894,22.469734,120.574852,31.0,屏東縣,新埤鄉,10013,10013150,陰,,,0.0,350.0,1.5,32.9,63.0,,,1.5,260.0,2026-07-02T09:24:00+08:00,3.6,250.0,2026-07-02T09:19:00+08:00,33.6,2026-07-02T10:27:00+08:00,25.3,2026-07-02T05:12:00+08:00
C2V570,吉東,2026-07-02T10:30:00+08:00,22.85418,120.54539,22.855957,120.537323,58.0,高雄市,美濃區,64000,64000310,晴,,,0.0,240.0,1.7,32.4,66.0,,,2.2,300.0,2026-07-02T09:54:00+08:00,4.0,300.0,2026-07-02T09:45:00+08:00,33.6,2026-07-02T10:14:00+08:00,26.0,2026-07-02T05:16:00+08:00
C2S800,華源,2026-07-02T10:30:00+08:00,22.65783,121.0232,22.659632,121.015143,79.0,臺東縣,太麻里鄉,10014,10014090,多雲,,,0.0,130.0,0.9,32.5,68.0,,,1.1,120.0,2026-07-02T09:44:00+08:00,2.7,120.0,2026-07-02T09:57:00+08:00,32.9,2026-07-02T10:09:00+08:00,25.2,2026-07-02T04:18:00+08:00
C2O850,環湖,2026-07-02T10:30:00+08:00,23.148665,120.4186,23.150431,120.410514,57.0,臺南市,大內區,67000,67000110,多雲,,,0.0,360.0,0.6,32.8,67.0,,,1.0,190.0,2026-07-02T09:17:00+08:00,2.3,220.0,2026-07-02T09:15:00+08:00,33.6,2026-07-02T10:13:00+08:00,24.9,2026-07-02T05:04:00+08:00
C2I210,蘆竹湳,2026-07-02T10:30:00+08:00,23.93398,120.81209,23.935748,120.803948,559.0,南投縣,中寮鄉,10008,10008080,晴,,,0.0,300.0,0.8,29.7,71.0,,,1.3,310.0,2026-07-02T09:22:00+08:00,2.4,350.0,2026-07-02T10:00:00+08:00,29.7,2026-07-02T09:57:00+08:00,23.4,2026-07-02T04:51:00+08:00
C2R240,萬巒,2026-07-02T10:30:00+08:00,22.527306,120.625111,22.529093,120.617065,87.0,屏東縣,萬巒鄉,10013,10013120,陰,,,0.0,20.0,0.5,31.9,66.0,,,0.8,290.0,2026-07-02T09:03:00+08:00,2.1,280.0,2026-07-02T09:05:00+08:00,32.2,2026-07-02T09:49:00+08:00,25.3,2026-07-02T05:25:00+08:00
C2R260,春日,2026-07-02T10:30:00+08:00,22.370361,120.628306,22.372152,120.62027,76.0,屏東縣,春日鄉,10013,10013310,陰,,,0.0,190.0,0.4,30.7,66.0,,,0.8,180.0,2026-07-02T09:05:00+08:00,3.6,150.0,2026-07-02T09:05:00+08:00,33.6,2026-07-02T10:08:00+08:00,25.9,2026-07-02T02:51:00+08:00
C2R490,九如,2026-07-02T10:30:00+08:00,22.74049,120.490555,22.742267,120.482496,45.0,屏東縣,九如鄉,10013,10013080,多雲,,,0.0,210.0,1.2,34.5,55.0,,,2.5,320.0,2026-07-02T09:37:00+08:00,4.5,290.0,2026-07-02T09:49:00+08:00,34.5,2026-07-02T10:30:00+08:00,26.9,2026-07-02T05:15:00+08:00
C2N200,口宵里,2026-07-02T10:30:00+08:00,23.15987,120.45988,23.161637,120.451793,272.0,臺南市,玉井區,67000,67000230,多雲,,,0.0,220.0,1.2,31.6,72.0,,,1.7,180.0,2026-07-02T09:03:00+08:00,3.3,210.0,2026-07-02T09:02:00+08:00,31.7,2026-07-02T10:24:00+08:00,24.8,2026-07-02T05:30:00+08:00
C2N210,岩坑,2026-07-02T10:30:00+08:00,23.24614,120.47458,23.247906,120.466487,154.0,臺南市,東山區,67000,67000060,多雲,,,0.0,210.0,0.7,31.8,68.0,,,1.2,260.0,2026-07-02T09:40:00+08:00,2.8,220.0,2026-07-02T09:31:00+08:00,32.2,2026-07-02T09:30:00+08:00,24.8,2026-07-02T03:15:00+08:00
C2M9F0,安溪寮,2026-07-02T10:30:00+08:00,23.350334,120.208039,23.352086,120.199941,54.0,嘉義縣,義竹鄉,10010,10010100,晴,,,0.0,270.0,2.5,31.7,71.0,,,1.9,270.0,2026-07-02T09:47:00+08:00,3.6,280.0,2026-07-02T09:56:00+08:00,32.3,2026-07-02T10:22:00+08:00,27.5,2026-07-02T02:50:00+08:00
C2M9G0,沄水,2026-07-02T10:30:00+08:00,23.38293,120.52666,23.384696,120.518557,178.0,嘉義縣,中埔鄉,10010,10010130,多雲,,,0.0,140.0,0.7,30.5,78.0,,,1.5,320.0,2026-07-02T09:04:00+08:00,2.6,310.0,2026-07-02T09:33:00+08:00,30.5,2026-07-02T09:02:00+08:00,24.8,2026-07-02T04:34:00+08:00
C2I240,外大坪,2026-07-02T10:30:00+08:00,23.9587,120.91788,23.960473,120.909735,725.0,南投縣,埔里鎮,10008,10008020,晴,,,0.0,310.0,3.1,28.1,79.0,,,2.4,310.0,2026-07-02T10:00:00+08:00,4.6,320.0,2026-07-02T09:59:00+08:00,29.8,2026-07-02T09:24:00+08:00,22.5,2026-07-02T05:34:00+08:00
C2I260,北坑,2026-07-02T10:30:00+08:00,23.92463,121.00683,23.926407,120.998687,601.0,南投縣,埔里鎮,10008,10008020,晴,,,0.0,140.0,1.0,31.2,55.0,,,1.7,290.0,2026-07-02T09:35:00+08:00,3.9,290.0,2026-07-02T09:51:00+08:00,31.6,2026-07-02T10:25:00+08:00,21.0,2026-07-02T05:38:00+08:00
C2D790,石鹿,2026-07-02T10:30:00+08:00,24.56551,121.15841,24.567282,121.150221,1785.0,新竹縣,五峰鄉,10004,10004130,晴,,,0.0,160.0,1.5,21.7,87.0,,,1.7,170.0,2026-07-02T09:11:00+08:00,3.0,160.0,2026-07-02T10:00:00+08:00,24.2,2026-07-02T09:40:00+08:00,18.8,2026-07-02T00:19:00+08:00
C2W230,畜試所澎湖,2026-07-02T10:30:00+08:00,23.628342,119.513206,23.630055,119.505094,35.0,澎湖縣,西嶼鄉,10016,10016040,晴,,,0.0,40.0,2.1,31.4,79.0,,,2.4,40.0,2026-07-02T09:59:00+08:00,3.9,20.0,2026-07-02T09:50:00+08:00,31.8,2026-07-02T08:12:00+08:00,25.3,2026-07-02T04:37:00+08:00
C2E880,三義,2026-07-02T10:30:00+08:00,24.405478,120.749819,24.407236,120.741644,507.0,苗栗縣,三義鄉,10005,10005130,多雲,,,0.0,280.0,0.8,26.6,94.0,,,1.2,260.0,2026-07-02T09:54:00+08:00,3.0,240.0,2026-07-02T09:50:00+08:00,27.6,2026-07-02T09:46:00+08:00,23.6,2026-07-02T00:21:00+08:00
C2FA00,烏石坑,2026-07-02T10:30:00+08:00,24.273503,120.947617,24.275269,120.939447,983.0,臺中市,和平區,66000,66000290,晴,,,0.0,340.0,0.5,26.6,77.0,,,1.3,60.0,2026-07-02T09:03:00+08:00,2.9,60.0,2026-07-02T09:56:00+08:00,28.0,2026-07-02T08:54:00+08:00,20.6,2026-07-02T01:34:00+08:00
C2F9A0,中竹林,2026-07-02T10:30:00+08:00,24.103556,120.751061,24.105556,120.743333,425.0,臺中市,太平區,66000,66000270,晴,,,,,,,,,,,,,,,,,,,
C2G840,北斗,2026-07-02T10:30:00+08:00,23.877586,120.514222,23.879222,120.506528,32.0,彰化縣,北斗鎮,10007,10007190,多雲,,,0.0,300.0,0.5,33.4,70.0,,,0.6,70.0,2026-07-02T09:02:00+08:00,1.7,190.0,2026-07-02T09:59:00+08:00,34.1,2026-07-02T10:20:00+08:00,26.3,2026-07-02T03:07:00+08:00
C2H950,中寮,2026-07-02T10:30:00+08:00,23.884447,120.766406,23.886278,120.758528,192.0,南投縣,中寮鄉,10008,10008080,晴,,,0.0,260.0,0.6,30.6,74.0,,,0.6,310.0,2026-07-02T09:53:00+08:00,2.6,300.0,2026-07-02T09:44:00+08:00,31.6,2026-07-02T09:53:00+08:00,24.8,2026-07-02T05:20:00+08:00
C2I090,鳳凰,2026-07-02T10:30:00+08:00,23.728081,120.787347,23.729722,120.779167,910.0,南投縣,鹿谷鄉,10008,10008070,晴,,,0.0,260.0,1.3,25.5,89.0,,,1.2,350.0,2026-07-02T09:42:00+08:00,2.7,360.0,2026-07-02T09:42:00+08:00,27.1,2026-07-02T07:24:00+08:00,21.9,2026-07-02T04:52:00+08:00
C2F860,梨山,2026-07-02T10:30:00+08:00,24.247522,121.243669,24.245,121.237667,2215.0,臺中市,和平區,66000,66000290,晴,,,0.0,270.0,0.9,23.4,57.0,,,1.2,340.0,2026-07-02T09:20:00+08:00,2.2,210.0,2026-07-02T09:34:00+08:00,23.8,2026-07-02T10:09:00+08:00,12.5,2026-07-02T04:19:00+08:00
C2K240,草嶺,2026-07-02T10:30:00+08:00,23.59555,120.693461,23.597319,120.685342,1132.0,雲林縣,古坑鄉,10009,10009070,多雲,,,0.0,320.0,2.4,24.1,92.0,,,3.2,320.0,2026-07-02T09:40:00+08:00,5.7,330.0,2026-07-02T09:35:00+08:00,26.0,2026-07-02T09:29:00+08:00,20.3,2026-07-02T05:20:00+08:00
C2E520,大湖,2026-07-02T10:30:00+08:00,24.414939,120.870872,24.4167,120.862694,320.0,苗栗縣,大湖鄉,10005,10005080,多雲,,,0.0,360.0,0.8,29.7,77.0,,,0.8,40.0,2026-07-02T09:20:00+08:00,2.1,300.0,2026-07-02T09:32:00+08:00,31.1,2026-07-02T09:29:00+08:00,22.6,2026-07-02T04:23:00+08:00
C2F000,大肚,2026-07-02T10:30:00+08:00,24.15295,120.572117,24.154667,120.564,273.0,臺中市,大肚區,66000,66000240,多雲,,,0.0,310.0,0.6,29.6,80.0,,,0.5,340.0,2026-07-02T09:14:00+08:00,1.6,350.0,2026-07-02T09:33:00+08:00,30.1,2026-07-02T10:06:00+08:00,26.0,2026-07-02T02:29:00+08:00
C2E540,龍溪,2026-07-02T10:30:00+08:00,24.606489,120.783933,24.608056,120.775556,32.0,苗栗縣,後龍鎮,10005,10005060,多雲,,,0.0,360.0,0.6,31.2,76.0,,,0.8,350.0,2026-07-02T09:19:00+08:00,2.4,350.0,2026-07-02T09:11:00+08:00,31.3,2026-07-02T10:27:00+08:00,24.8,2026-07-02T05:09:00+08:00
C2F930,大甲,2026-07-02T10:30:00+08:00,24.347667,120.640403,24.349917,120.632361,100.0,臺中市,大甲區,66000,66000110,多雲,,,0.0,330.0,0.4,31.0,79.0,,,0.6,310.0,2026-07-02T09:03:00+08:00,2.7,290.0,2026-07-02T09:01:00+08:00,31.3,2026-07-02T10:01:00+08:00,26.0,2026-07-02T02:23:00+08:00
C2G870,芳苑,2026-07-02T10:30:00+08:00,23.922303,120.320025,23.924,120.311861,12.0,彰化縣,芳苑鄉,10007,10007230,晴,,,0.0,330.0,2.1,31.9,74.0,,,2.2,340.0,2026-07-02T10:00:00+08:00,4.5,10.0,2026-07-02T09:54:00+08:00,32.1,2026-07-02T10:22:00+08:00,27.5,2026-07-02T01:40:00+08:00
C2G640,鹿港,2026-07-02T10:30:00+08:00,24.0753,120.430481,24.076944,120.422222,17.0,彰化縣,鹿港鎮,10007,10007020,晴,,,0.0,310.0,2.1,33.0,69.0,,,2.4,320.0,2026-07-02T09:43:00+08:00,5.2,350.0,2026-07-02T09:35:00+08:00,33.0,2026-07-02T10:06:00+08:00,26.5,2026-07-02T01:56:00+08:00
C2M910,嘉義大學,2026-07-02T10:30:00+08:00,23.471325,120.485903,23.473087,120.477795,68.0,嘉義市,東區,10020,10020010,多雲,,,0.0,180.0,0.6,33.1,65.0,,,1.2,120.0,2026-07-02T09:02:00+08:00,2.7,200.0,2026-07-02T09:39:00+08:00,33.3,2026-07-02T10:01:00+08:00,26.1,2026-07-02T02:43:00+08:00
C2O950,安南,2026-07-02T10:30:00+08:00,23.076694,120.144861,23.078333,120.136667,4.0,臺南市,安南區,67000,67000350,晴,,,,,,,,,,,,,,,,,,,
C2M410,馬頭山,2026-07-02T10:30:00+08:00,23.324361,120.582017,23.326389,120.573611,245.0,嘉義縣,大埔鄉,10010,10010170,多雲,,,0.0,170.0,1.1,33.1,65.0,,,1.0,140.0,2026-07-02T09:19:00+08:00,2.5,140.0,2026-07-02T09:24:00+08:00,33.1,2026-07-02T10:28:00+08:00,23.8,2026-07-02T05:24:00+08:00
C2O810,曾文,2026-07-02T10:30:00+08:00,23.219681,120.497328,23.221472,120.489222,161.0,臺南市,楠西區,67000,67000240,多雲,,,0.0,270.0,0.3,33.2,65.0,,,1.2,180.0,2026-07-02T09:01:00+08:00,2.5,170.0,2026-07-02T09:08:00+08:00,33.2,2026-07-02T10:30:00+08:00,24.8,2026-07-02T03:29:00+08:00
C2O930,玉井,2026-07-02T10:30:00+08:00,23.126042,120.46055,23.127833,120.452472,69.0,臺南市,玉井區,67000,67000230,晴,,,0.0,350.0,0.5,33.6,70.0,,,0.8,220.0,2026-07-02T09:41:00+08:00,2.7,190.0,2026-07-02T09:40:00+08:00,33.6,2026-07-02T10:30:00+08:00,25.0,2026-07-02T04:55:00+08:00
C2V260,月眉,2026-07-02T10:30:00+08:00,22.971003,120.539853,22.972778,120.531778,126.0,高雄市,杉林區,64000,64000340,晴,,,0.0,210.0,1.3,33.4,63.0,,,1.7,300.0,2026-07-02T09:59:00+08:00,3.7,210.0,2026-07-02T09:36:00+08:00,33.4,2026-07-02T10:30:00+08:00,24.6,2026-07-02T05:32:00+08:00
C2V250,甲仙,2026-07-02T10:30:00+08:00,23.080106,120.591758,23.081667,120.5825,298.0,高雄市,甲仙區,64000,64000330,晴,,,0.0,240.0,0.6,32.4,63.0,,,1.3,170.0,2026-07-02T09:33:00+08:00,2.7,150.0,2026-07-02T09:28:00+08:00,32.4,2026-07-02T09:58:00+08:00,22.0,2026-07-02T05:38:00+08:00
C2N160,西拉雅風管處,2026-07-02T10:30:00+08:00,23.189481,120.335297,23.191241,120.327209,43.0,臺南市,官田區,67000,67000100,多雲,,,0.0,340.0,0.9,32.5,68.0,,,1.2,270.0,2026-07-02T09:44:00+08:00,2.5,240.0,2026-07-02T09:37:00+08:00,33.2,2026-07-02T09:57:00+08:00,26.0,2026-07-02T04:58:00+08:00
C2A920,富貴角,2026-07-02T10:30:00+08:00,25.263783,121.565258,25.265556,121.557278,196.0,新北市,石門區,65000,65000220,晴,,,0.0,300.0,1.8,29.9,75.0,,,2.2,300.0,2026-07-02T09:58:00+08:00,4.5,300.0,2026-07-02T09:42:00+08:00,30.0,2026-07-02T10:22:00+08:00,25.3,2026-07-02T05:22:00+08:00
C2A880,福隆,2026-07-02T10:30:00+08:00,25.017842,121.942083,25.019167,121.934167,6.0,新北市,貢寮區,65000,65000260,多雲,,,0.0,150.0,1.2,32.8,65.0,,,1.7,130.0,2026-07-02T09:59:00+08:00,5.0,140.0,2026-07-02T09:57:00+08:00,33.0,2026-07-02T10:09:00+08:00,24.9,2026-07-02T04:17:00+08:00
C2A540,四堵,2026-07-02T10:30:00+08:00,24.8926,121.745736,24.894394,121.737519,401.0,新北市,坪林區,65000,65000200,晴,,,0.0,260.0,0.4,32.6,64.0,,,0.6,230.0,2026-07-02T09:35:00+08:00,1.3,210.0,2026-07-02T09:45:00+08:00,33.5,2026-07-02T10:19:00+08:00,21.5,2026-07-02T05:21:00+08:00
C2A560,福山,2026-07-02T10:30:00+08:00,24.776203,121.502811,24.778333,121.494583,405.0,新北市,烏來區,65000,65000290,晴,,,0.0,320.0,0.8,33.9,57.0,,,1.5,310.0,2026-07-02T09:52:00+08:00,3.5,270.0,2026-07-02T09:45:00+08:00,33.9,2026-07-02T10:28:00+08:00,21.3,2026-07-02T04:57:00+08:00
C2D720,關西工作站,2026-07-02T10:30:00+08:00,24.757275,121.184792,24.759045,121.176589,164.0,新竹縣,關西鎮,10004,10004040,多雲,,,0.0,200.0,0.9,31.9,64.0,,,1.2,330.0,2026-07-02T09:05:00+08:00,2.1,320.0,2026-07-02T09:01:00+08:00,31.9,2026-07-02T10:30:00+08:00,22.6,2026-07-02T04:49:00+08:00
C2D730,寶山農場,2026-07-02T10:30:00+08:00,24.732444,120.976153,24.734205,120.967953,78.0,新竹縣,寶山鄉,10004,10004100,多雲,,,0.0,200.0,0.5,31.8,76.0,,,0.5,120.0,2026-07-02T09:04:00+08:00,1.6,210.0,2026-07-02T09:59:00+08:00,31.8,2026-07-02T10:17:00+08:00,24.7,2026-07-02T05:11:00+08:00
C2H9K0,屯原,2026-07-02T10:30:00+08:00,24.067969,121.209389,24.069754,121.201235,2047.0,南投縣,仁愛鄉,10008,10008130,晴,,,0.0,220.0,4.5,20.9,71.0,,,2.5,230.0,2026-07-02T09:51:00+08:00,3.7,210.0,2026-07-02T09:39:00+08:00,23.9,2026-07-02T08:28:00+08:00,16.9,2026-07-02T01:12:00+08:00
C2G980,田頭村,2026-07-02T10:30:00+08:00,23.8263,120.444175,23.828053,120.436042,27.0,彰化縣,竹塘鄉,10007,10007250,多雲,,,0.0,300.0,2.7,31.0,80.0,,,2.0,280.0,2026-07-02T09:48:00+08:00,3.7,260.0,2026-07-02T09:45:00+08:00,33.0,2026-07-02T09:31:00+08:00,26.0,2026-07-02T03:31:00+08:00
C2K610,草嶺石壁,2026-07-02T10:30:00+08:00,23.602469,120.707731,23.604239,120.699612,1143.0,雲林縣,古坑鄉,10009,10009070,多雲,,,0.0,240.0,1.8,23.7,86.0,,,1.3,160.0,2026-07-02T09:58:00+08:00,3.2,140.0,2026-07-02T09:41:00+08:00,26.4,2026-07-02T09:34:00+08:00,19.9,2026-07-02T04:56:00+08:00
C2F990,摩天嶺,2026-07-02T10:30:00+08:00,24.322458,120.936819,24.324225,120.928649,1018.0,臺中市,和平區,66000,66000290,晴,,,0.0,240.0,1.3,29.5,71.0,,,2.7,190.0,2026-07-02T10:00:00+08:00,5.5,200.0,2026-07-02T09:46:00+08:00,29.5,2026-07-02T10:30:00+08:00,22.2,2026-07-02T05:15:00+08:00
C2M920,朴子農改,2026-07-02T10:30:00+08:00,23.469889,120.259383,23.47164,120.251277,7.0,嘉義縣,朴子市,10010,10010020,晴,,,0.0,290.0,2.2,31.7,69.0,,,1.8,290.0,2026-07-02T09:53:00+08:00,3.0,290.0,2026-07-02T09:31:00+08:00,32.4,2026-07-02T09:16:00+08:00,26.8,2026-07-02T02:38:00+08:00
C2M620,瑞里,2026-07-02T10:30:00+08:00,23.545133,120.675197,23.546903,120.667039,1252.0,嘉義縣,梅山鄉,10010,10010150,多雲,,,0.0,300.0,2.2,22.5,94.0,,,2.7,300.0,2026-07-02T09:23:00+08:00,4.7,300.0,2026-07-02T09:17:00+08:00,25.1,2026-07-02T06:42:00+08:00,20.5,2026-07-02T05:29:00+08:00
C2A660,瑞芳,2026-07-02T10:30:00+08:00,25.113169,121.801147,25.114861,121.792639,97.0,新北市,瑞芳區,65000,65000120,晴,,,0.0,30.0,1.1,31.1,77.0,,,1.3,50.0,2026-07-02T09:22:00+08:00,3.2,10.0,2026-07-02T09:05:00+08:00,31.8,2026-07-02T09:25:00+08:00,24.1,2026-07-02T04:57:00+08:00
C2A650,火燒寮,2026-07-02T10:30:00+08:00,25.002719,121.742892,25.004411,121.734572,287.0,新北市,平溪區,65000,65000240,晴,,,0.0,20.0,1.0,31.8,71.0,,,1.1,20.0,2026-07-02T09:47:00+08:00,2.5,30.0,2026-07-02T09:03:00+08:00,32.0,2026-07-02T10:05:00+08:00,21.3,2026-07-02T05:03:00+08:00
C2H9W0,大坪頂農水,2026-07-02T10:30:00+08:00,24.043122,120.932781,24.044894,120.92463,724.0,南投縣,埔里鎮,10008,10008020,晴,,,0.0,280.0,1.8,28.6,78.0,,,2.2,250.0,2026-07-02T09:32:00+08:00,4.5,250.0,2026-07-02T09:38:00+08:00,29.5,2026-07-02T09:08:00+08:00,22.1,2026-07-02T05:43:00+08:00
C2K620,馬光農場,2026-07-02T10:30:00+08:00,23.721453,120.378864,23.723205,120.370739,24.0,雲林縣,虎尾鎮,10009,10009030,多雲,,,0.0,250.0,1.8,33.5,67.0,,,1.8,270.0,2026-07-02T09:54:00+08:00,3.5,270.0,2026-07-02T09:50:00+08:00,34.6,2026-07-02T10:11:00+08:00,26.2,2026-07-02T03:12:00+08:00
C2FB50,出雲,2026-07-02T10:30:00+08:00,24.206469,120.902794,24.208236,120.894632,1070.0,臺中市,和平區,66000,66000290,晴,,,0.0,340.0,1.0,27.3,77.0,,,2.2,190.0,2026-07-02T09:32:00+08:00,3.2,180.0,2026-07-02T09:26:00+08:00,27.9,2026-07-02T09:05:00+08:00,20.1,2026-07-02T02:09:00+08:00
C2FB60,頭櫃山,2026-07-02T10:30:00+08:00,24.129842,120.858925,24.131608,120.850769,1117.0,臺中市,新社區,66000,66000190,晴,,,,,,,,,,,,,,,,,,,
C2H9D0,三隻寮,2026-07-02T10:30:00+08:00,24.093078,120.861578,24.094845,120.853424,741.0,南投縣,國姓鄉,10008,10008100,晴,,,0.0,270.0,0.4,31.7,65.0,,,0.5,150.0,2026-07-02T09:01:00+08:00,1.3,150.0,2026-07-02T09:14:00+08:00,31.8,2026-07-02T10:27:00+08:00,23.0,2026-07-02T04:13:00+08:00
C2H9E0,國姓南港,2026-07-02T10:30:00+08:00,23.911108,120.846556,23.912878,120.838415,1166.0,南投縣,國姓鄉,10008,10008100,晴,,,0.0,210.0,2.2,25.1,80.0,,,2.1,230.0,2026-07-02T09:58:00+08:00,4.0,220.0,2026-07-02T09:44:00+08:00,25.4,2026-07-02T08:22:00+08:00,20.2,2026-07-02T01:29:00+08:00
C2H9F0,柑林,2026-07-02T10:30:00+08:00,24.018658,120.847072,24.020426,120.838924,281.0,南投縣,國姓鄉,10008,10008100,晴,,,0.0,210.0,1.5,32.5,63.0,,,2.1,200.0,2026-07-02T09:51:00+08:00,4.9,230.0,2026-07-02T09:14:00+08:00,32.8,2026-07-02T10:12:00+08:00,24.2,2026-07-02T04:45:00+08:00
C2H9G0,百勝,2026-07-02T10:30:00+08:00,24.051142,120.909361,24.052912,120.90121,502.0,南投縣,國姓鄉,10008,10008100,晴,,,0.0,290.0,1.3,31.8,66.0,,,2.0,280.0,2026-07-02T09:38:00+08:00,3.6,340.0,2026-07-02T09:22:00+08:00,32.0,2026-07-02T10:14:00+08:00,23.5,2026-07-02T05:40:00+08:00
C2M930,石卓,2026-07-02T10:30:00+08:00,23.478744,120.702264,23.480516,120.694154,1548.0,嘉義縣,竹崎鄉,10010,10010140,多雲,,,0.0,280.0,1.2,20.3,95.0,,,2.7,300.0,2026-07-02T09:24:00+08:00,4.4,300.0,2026-07-02T09:23:00+08:00,22.7,2026-07-02T08:30:00+08:00,18.9,2026-07-02T04:46:00+08:00
C2M940,日野賀,2026-07-02T10:30:00+08:00,23.434056,120.727169,23.435829,120.719062,1112.0,嘉義縣,阿里山鄉,10010,10010180,晴,,,0.0,100.0,1.5,26.1,74.0,,,3.1,20.0,2026-07-02T09:11:00+08:00,6.4,50.0,2026-07-02T09:41:00+08:00,28.4,2026-07-02T08:04:00+08:00,18.4,2026-07-02T05:31:00+08:00
C2M950,太和,2026-07-02T10:30:00+08:00,23.538372,120.702961,23.540143,120.694847,1367.0,嘉義縣,梅山鄉,10010,10010150,多雲,,,0.0,90.0,1.8,23.7,85.0,,,3.2,340.0,2026-07-02T09:24:00+08:00,6.0,70.0,2026-07-02T09:54:00+08:00,26.0,2026-07-02T08:09:00+08:00,20.7,2026-07-02T05:37:00+08:00
C2K630,荷苞,2026-07-02T10:30:00+08:00,23.657717,120.595144,23.65948,120.587023,173.0,雲林縣,古坑鄉,10009,10009070,多雲,,,0.0,270.0,1.3,31.4,73.0,,,1.3,220.0,2026-07-02T09:47:00+08:00,2.7,210.0,2026-07-02T09:46:00+08:00,32.0,2026-07-02T09:31:00+08:00,24.8,2026-07-02T02:12:00+08:00
C2H9H0,苗改南投蜂場,2026-07-02T10:30:00+08:00,23.852589,120.693481,23.854353,120.685345,158.0,南投縣,名間鄉,10008,10008060,多雲,,,0.0,220.0,0.9,32.4,66.0,,,1.3,250.0,2026-07-02T09:01:00+08:00,2.2,140.0,2026-07-02T10:00:00+08:00,32.4,2026-07-02T10:27:00+08:00,24.5,2026-07-02T04:50:00+08:00
C2G9A0,畜試所彰化,2026-07-02T10:30:00+08:00,23.86045,120.557964,23.862208,120.549828,51.0,彰化縣,北斗鎮,10007,10007190,多雲,,,0.0,220.0,1.3,33.5,66.0,,,1.2,250.0,2026-07-02T09:32:00+08:00,2.4,300.0,2026-07-02T09:39:00+08:00,33.6,2026-07-02T10:26:00+08:00,26.1,2026-07-02T03:45:00+08:00
C2E970,八甲,2026-07-02T10:30:00+08:00,24.535811,120.795983,24.537566,120.787798,175.0,苗栗縣,苗栗市,10005,10005010,多雲,,,0.0,10.0,1.6,30.6,78.0,,,1.5,350.0,2026-07-02T09:07:00+08:00,3.0,330.0,2026-07-02T09:42:00+08:00,30.6,2026-07-02T10:30:00+08:00,25.3,2026-07-02T02:20:00+08:00
C2H9J0,中台,2026-07-02T10:30:00+08:00,23.9996,120.938739,24.001373,120.930591,545.0,南投縣,埔里鎮,10008,10008020,晴,,,0.0,270.0,1.7,32.7,58.0,,,1.8,270.0,2026-07-02T09:56:00+08:00,3.7,240.0,2026-07-02T10:00:00+08:00,32.8,2026-07-02T10:22:00+08:00,22.8,2026-07-02T05:13:00+08:00
C2H9L0,馬烈霸,2026-07-02T10:30:00+08:00,24.1512,121.201772,24.152982,121.193613,1999.0,南投縣,仁愛鄉,10008,10008130,晴,,,0.0,190.0,0.9,23.5,60.0,,,1.2,140.0,2026-07-02T09:19:00+08:00,2.5,130.0,2026-07-02T09:19:00+08:00,24.5,2026-07-02T08:24:00+08:00,16.0,2026-07-02T03:11:00+08:00
C2H9M0,發祥,2026-07-02T10:30:00+08:00,24.154094,121.164517,24.155875,121.156357,1255.0,南投縣,仁愛鄉,10008,10008130,晴,,,0.0,120.0,1.8,27.3,58.0,,,2.2,100.0,2026-07-02T10:00:00+08:00,4.5,100.0,2026-07-02T09:58:00+08:00,27.4,2026-07-02T10:28:00+08:00,18.1,2026-07-02T06:15:00+08:00
C2H9N0,仁愛東眼,2026-07-02T10:30:00+08:00,24.026875,121.1205,24.028656,121.112349,1439.0,南投縣,仁愛鄉,10008,10008130,晴,,,0.0,230.0,5.2,25.2,73.0,,,4.5,230.0,2026-07-02T10:00:00+08:00,6.7,240.0,2026-07-02T09:58:00+08:00,27.3,2026-07-02T08:58:00+08:00,18.0,2026-07-02T05:10:00+08:00
C2H9P0,伊拿谷,2026-07-02T10:30:00+08:00,23.963211,121.088264,23.964991,121.080118,913.0,南投縣,仁愛鄉,10008,10008130,晴,,,0.0,220.0,2.1,30.5,57.0,,,1.8,220.0,2026-07-02T09:57:00+08:00,3.4,240.0,2026-07-02T09:57:00+08:00,30.5,2026-07-02T10:29:00+08:00,18.9,2026-07-02T05:38:00+08:00
C2H9Q0,北東眼山,2026-07-02T10:30:00+08:00,24.120939,121.189303,24.122721,121.181145,2032.0,南投縣,仁愛鄉,10008,10008130,晴,,,0.0,70.0,0.9,24.5,60.0,,,1.1,340.0,2026-07-02T09:59:00+08:00,2.5,140.0,2026-07-02T09:41:00+08:00,24.8,2026-07-02T10:28:00+08:00,15.4,2026-07-02T00:40:00+08:00
C2H9R0,卓社,2026-07-02T10:30:00+08:00,23.887894,121.000086,23.889672,120.991946,1301.0,南投縣,仁愛鄉,10008,10008130,晴,,,0.0,320.0,1.7,26.0,75.0,,,1.8,340.0,2026-07-02T09:57:00+08:00,3.4,340.0,2026-07-02T09:15:00+08:00,26.4,2026-07-02T07:37:00+08:00,20.7,2026-07-02T04:55:00+08:00
C2H9S0,龍南,2026-07-02T10:30:00+08:00,23.953536,120.833183,23.955305,120.825039,1000.0,南投縣,國姓鄉,10008,10008100,晴,,,0.0,240.0,1.8,27.6,76.0,,,,,,,,,28.9,2026-07-02T09:22:00+08:00,21.4,2026-07-02T05:17:00+08:00
C2R970,屏科大,2026-07-02T10:30:00+08:00,22.648275,120.619247,22.65006,120.611193,128.0,屏東縣,內埔鄉,10013,10013130,多雲,,,0.0,180.0,1.5,33.6,60.0,,,1.6,280.0,2026-07-02T09:24:00+08:00,3.2,290.0,2026-07-02T09:25:00+08:00,33.8,2026-07-02T10:27:00+08:00,25.7,2026-07-02T04:51:00+08:00
C2H9T0,名間竹圍,2026-07-02T10:30:00+08:00,23.859914,120.637572,23.861675,120.629436,317.0,南投縣,名間鄉,10008,10008060,多雲,,,0.0,260.0,1.8,31.1,71.0,,,1.8,280.0,2026-07-02T09:28:00+08:00,3.7,290.0,2026-07-02T09:03:00+08:00,31.2,2026-07-02T10:20:00+08:00,24.1,2026-07-02T03:29:00+08:00
C2H9U0,鳳鵬,2026-07-02T10:30:00+08:00,23.763919,120.788061,23.76569,120.779931,343.0,南投縣,鹿谷鄉,10008,10008070,晴,,,0.0,340.0,0.8,31.9,69.0,,,1.5,20.0,2026-07-02T09:57:00+08:00,3.0,20.0,2026-07-02T09:42:00+08:00,33.8,2026-07-02T09:27:00+08:00,23.1,2026-07-02T05:11:00+08:00
CAF010,國一N174K,2026-07-02T10:30:00+08:00,24.2049,120.6552,24.206657,120.647035,150.0,臺中市,西屯區,66000,66000060,多雲,>30,,0.0,300.0,2.0,30.3,84.0,,,2.7,340.0,2026-07-02T09:49:00+08:00,4.8,350.0,2026-07-02T09:53:00+08:00,31.0,2026-07-02T08:58:00+08:00,26.5,2026-07-02T05:05:00+08:00
CAG010,國一N198K,2026-07-02T10:30:00+08:00,24.063889,120.523056,24.065639,120.514899,28.0,彰化縣,彰化市,10007,10007010,多雲,,,0.0,350.0,2.7,32.1,79.0,,,2.4,340.0,2026-07-02T09:51:00+08:00,4.8,350.0,2026-07-02T09:35:00+08:00,32.6,2026-07-02T09:40:00+08:00,28.1,2026-07-02T02:00:00+08:00
CAJ020,國一N234K,2026-07-02T10:30:00+08:00,23.74633,120.467926,23.748078,120.459788,50.0,雲林縣,西螺鎮,10009,10009040,多雲,21-30,,0.0,270.0,1.7,32.2,70.0,,,2.2,320.0,2026-07-02T09:46:00+08:00,3.9,330.0,2026-07-02T09:44:00+08:00,32.5,2026-07-02T09:28:00+08:00,27.1,2026-07-02T02:44:00+08:00
CAL010,國一N250K,2026-07-02T10:30:00+08:00,23.610292,120.436867,23.612038,120.428737,46.0,嘉義縣,大林鎮,10010,10010040,多雲,,,0.0,280.0,1.5,32.6,78.0,,,1.8,280.0,2026-07-02T09:31:00+08:00,3.6,270.0,2026-07-02T09:24:00+08:00,32.7,2026-07-02T10:15:00+08:00,26.8,2026-07-02T03:32:00+08:00
CAD010,國一S105K,2026-07-02T10:30:00+08:00,24.726316,120.940643,24.728088,120.932448,36.0,新竹縣,寶山鄉,10004,10004100,多雲,7-10,,0.0,330.0,2.0,30.1,79.0,,,2.1,360.0,2026-07-02T09:43:00+08:00,3.6,360.0,2026-07-02T09:58:00+08:00,30.5,2026-07-02T09:53:00+08:00,25.5,2026-07-02T04:36:00+08:00
CAE020,國一S114K,2026-07-02T10:30:00+08:00,24.668836,120.885811,24.670593,120.877616,32.0,苗栗縣,頭份市,10005,10005050,多雲,,,0.0,280.0,2.2,29.5,80.0,,,2.0,290.0,2026-07-02T10:00:00+08:00,2.9,30.0,2026-07-02T09:27:00+08:00,30.3,2026-07-02T09:26:00+08:00,25.8,2026-07-02T05:10:00+08:00
CAE030,國一S123K,2026-07-02T10:30:00+08:00,24.59594,120.86071,24.597708,120.852523,76.0,苗栗縣,頭屋鄉,10005,10005120,多雲,,,,,,,,,,1.6,30.0,2026-07-02T09:37:00+08:00,3.7,40.0,2026-07-02T09:25:00+08:00,,,,
CAE040,國一S132K,2026-07-02T10:30:00+08:00,24.524506,120.820831,24.526272,120.812648,97.0,苗栗縣,公館鄉,10005,10005090,多雲,7-10,,0.0,10.0,2.4,29.7,80.0,,,3.7,330.0,2026-07-02T09:49:00+08:00,6.7,330.0,2026-07-02T09:42:00+08:00,31.7,2026-07-02T08:55:00+08:00,25.8,2026-07-02T05:05:00+08:00
CAE050,國一S152K,2026-07-02T10:30:00+08:00,24.375492,120.749184,24.377254,120.74101,339.0,苗栗縣,三義鄉,10005,10005130,多雲,>30,,0.0,320.0,1.8,28.8,81.0,,,1.5,310.0,2026-07-02T09:09:00+08:00,2.7,50.0,2026-07-02T09:18:00+08:00,30.3,2026-07-02T08:56:00+08:00,25.0,2026-07-02T02:45:00+08:00
CAF020,國一S162K,2026-07-02T10:30:00+08:00,24.295534,120.695976,24.297293,120.687806,209.0,臺中市,后里區,66000,66000150,多雲,,,0.0,330.0,3.1,29.7,80.0,,,2.6,290.0,2026-07-02T09:22:00+08:00,4.5,270.0,2026-07-02T09:22:00+08:00,30.3,2026-07-02T07:31:00+08:00,26.1,2026-07-02T02:36:00+08:00
CAF030,國一S169K,2026-07-02T10:30:00+08:00,24.237116,120.688271,24.238875,120.680105,195.0,臺中市,神岡區,66000,66000160,多雲,,,0.0,350.0,2.2,29.6,87.0,,,2.7,330.0,2026-07-02T09:45:00+08:00,5.3,300.0,2026-07-02T09:42:00+08:00,30.3,2026-07-02T09:37:00+08:00,26.2,2026-07-02T03:13:00+08:00
CAF040,國一S188K,2026-07-02T10:30:00+08:00,24.118546,120.585747,24.120299,120.577587,54.0,臺中市,大肚區,66000,66000240,多雲,,,,,,,,,,,,,,,,,,,
CAG030,國一S207K,2026-07-02T10:30:00+08:00,23.988304,120.508092,23.990053,120.499939,33.0,彰化縣,大村鄉,10007,10007130,多雲,,,,,,,,,,3.4,300.0,2026-07-02T09:55:00+08:00,5.3,300.0,2026-07-02T09:49:00+08:00,,,,
CAE060,國三N119K,2026-07-02T10:30:00+08:00,24.675432,120.847389,24.677199,120.839196,28.0,苗栗縣,竹南鎮,10005,10005040,多雲,>30,,0.0,340.0,2.6,29.3,81.0,,,3.1,340.0,2026-07-02T09:33:00+08:00,4.3,340.0,2026-07-02T09:27:00+08:00,30.0,2026-07-02T09:59:00+08:00,25.8,2026-07-02T05:14:00+08:00
CAE070,國三N151K,2026-07-02T10:30:00+08:00,24.440218,120.681656,24.441976,120.673477,77.0,苗栗縣,苑裡鎮,10005,10005020,多雲,,,0.0,360.0,2.0,30.3,81.0,,,2.7,340.0,2026-07-02T09:29:00+08:00,4.7,320.0,2026-07-02T09:31:00+08:00,30.3,2026-07-02T10:28:00+08:00,25.8,2026-07-02T02:37:00+08:00
CAG040,國三N191K,2026-07-02T10:30:00+08:00,24.139256,120.5215,24.141006,120.513338,35.0,彰化縣,和美鎮,10007,10007030,多雲,,,0.0,310.0,3.1,30.5,84.0,,,2.4,30.0,2026-07-02T09:17:00+08:00,5.0,320.0,2026-07-02T09:56:00+08:00,31.2,2026-07-02T09:25:00+08:00,27.3,2026-07-02T03:21:00+08:00
CAG050,國三N196K,2026-07-02T10:30:00+08:00,24.107155,120.554482,24.108907,120.546322,60.0,彰化縣,彰化市,10007,10007010,多雲有靄,3-6,,0.0,330.0,4.2,30.8,79.0,,,,,,,,,31.2,2026-07-02T09:34:00+08:00,27.1,2026-07-02T02:57:00+08:00
CAF050,國三N208K,2026-07-02T10:30:00+08:00,24.066147,120.660919,24.067905,120.652763,85.0,臺中市,霧峰區,66000,66000260,多雲,,,0.0,310.0,1.3,32.5,78.0,,,1.5,290.0,2026-07-02T09:06:00+08:00,2.7,270.0,2026-07-02T09:40:00+08:00,32.6,2026-07-02T09:53:00+08:00,26.8,2026-07-02T03:00:00+08:00
CAE560,國一S144K,2026-07-02T10:30:00+08:00,24.437042,120.778219,24.438818,120.770016,265.0,苗栗縣,銅鑼鄉,10005,10005100,多雲,7-10,,0.0,10.0,1.8,28.8,84.0,,,1.6,340.0,2026-07-02T09:01:00+08:00,3.9,10.0,2026-07-02T09:29:00+08:00,29.2,2026-07-02T09:31:00+08:00,24.2,2026-07-02T02:48:00+08:00
CAF950,國一N158K,2026-07-02T10:30:00+08:00,24.332372,120.717144,24.334121,120.708967,183.0,臺中市,后里區,66000,66000150,多雲,7-10,,0.0,320.0,3.5,29.7,88.0,,,3.5,310.0,2026-07-02T09:37:00+08:00,5.7,310.0,2026-07-02T09:35:00+08:00,30.0,2026-07-02T09:11:00+08:00,25.0,2026-07-02T04:01:00+08:00
CAF960,國三S175K,2026-07-02T10:30:00+08:00,24.251494,120.589683,24.253246,120.58152,154.0,臺中市,沙鹿區,66000,66000130,多雲,7-10,,0.0,330.0,3.4,29.8,78.0,,,2.9,320.0,2026-07-02T09:31:00+08:00,4.5,300.0,2026-07-02T09:29:00+08:00,29.8,2026-07-02T09:55:00+08:00,26.2,2026-07-02T01:58:00+08:00
CAF980,國三N183K,2026-07-02T10:30:00+08:00,24.193628,120.570311,24.19538,120.562148,131.0,臺中市,龍井區,66000,66000250,晴,7-10,,0.0,330.0,2.9,30.8,82.0,,,2.2,330.0,2026-07-02T09:08:00+08:00,4.3,340.0,2026-07-02T09:08:00+08:00,30.8,2026-07-02T09:56:00+08:00,26.2,2026-07-02T02:29:00+08:00
CAH010,國三N223K,2026-07-02T10:30:00+08:00,23.955116,120.662376,23.956874,120.654227,109.0,南投縣,草屯鎮,10008,10008030,多雲,21-30,,0.0,300.0,1.6,31.6,71.0,,,3.1,350.0,2026-07-02T09:58:00+08:00,5.5,360.0,2026-07-02T09:54:00+08:00,32.6,2026-07-02T09:41:00+08:00,26.3,2026-07-02T03:18:00+08:00
CAJ010,國三N252K,2026-07-02T10:30:00+08:00,23.77412,120.64061,23.775877,120.632472,130.0,雲林縣,林內鄉,10009,10009100,多雲,7-10,,0.0,230.0,2.2,30.8,85.0,,,1.8,270.0,2026-07-02T09:43:00+08:00,3.6,200.0,2026-07-02T09:59:00+08:00,32.1,2026-07-02T09:31:00+08:00,24.8,2026-07-02T04:55:00+08:00
CAE080,國三S140K,2026-07-02T10:30:00+08:00,24.522345,120.725006,24.524106,120.716822,64.0,苗栗縣,通霄鎮,10005,10005030,多雲,7-10,,0.0,50.0,1.8,30.5,78.0,,,1.6,50.0,2026-07-02T09:34:00+08:00,3.4,30.0,2026-07-02T09:28:00+08:00,31.2,2026-07-02T09:59:00+08:00,25.2,2026-07-02T03:38:00+08:00
CAE090,國三S156K,2026-07-02T10:30:00+08:00,24.39798,120.669487,24.399738,120.66131,89.0,苗栗縣,苑裡鎮,10005,10005020,多雲,,,0.0,10.0,2.7,30.6,82.0,,,3.5,340.0,2026-07-02T09:53:00+08:00,4.9,330.0,2026-07-02T09:46:00+08:00,30.6,2026-07-02T10:30:00+08:00,26.2,2026-07-02T02:36:00+08:00
CAF060,國三S168K,2026-07-02T10:30:00+08:00,24.308519,120.614471,24.310274,120.606299,117.0,臺中市,清水區,66000,66000120,多雲,21-30,,0.0,340.0,3.2,29.6,80.0,,,3.1,340.0,2026-07-02T09:42:00+08:00,4.4,350.0,2026-07-02T09:33:00+08:00,29.6,2026-07-02T10:30:00+08:00,26.3,2026-07-02T02:37:00+08:00
CAG060,國三S202K,2026-07-02T10:30:00+08:00,24.092468,120.603256,24.094222,120.595098,48.0,彰化縣,彰化市,10007,10007010,多雲,,,0.0,280.0,2.7,31.1,79.0,,,2.1,290.0,2026-07-02T09:58:00+08:00,3.7,310.0,2026-07-02T09:44:00+08:00,32.5,2026-07-02T09:45:00+08:00,27.3,2026-07-02T03:43:00+08:00
CAH020,國三S217K,2026-07-02T10:30:00+08:00,24.00683,120.653214,24.008587,120.645062,93.0,南投縣,草屯鎮,10008,10008030,多雲,,,0.0,310.0,2.2,32.5,69.0,,,2.2,310.0,2026-07-02T09:58:00+08:00,3.7,310.0,2026-07-02T09:51:00+08:00,32.7,2026-07-02T08:50:00+08:00,26.7,2026-07-02T03:53:00+08:00
CAF090,國四E5K,2026-07-02T10:30:00+08:00,24.296465,120.643135,24.298221,120.634964,130.0,臺中市,神岡區,66000,66000160,多雲,,,0.0,330.0,1.8,30.7,84.0,,,1.7,310.0,2026-07-02T09:02:00+08:00,3.7,340.0,2026-07-02T09:46:00+08:00,30.8,2026-07-02T09:57:00+08:00,25.5,2026-07-02T03:04:00+08:00
CAA090,國三甲005K,2026-07-02T10:30:00+08:00,25.00194,121.5975,25.003726,121.589277,60.0,臺北市,文山區,63000,63000080,晴,>30,,0.0,350.0,2.6,31.8,77.0,,,1.6,360.0,2026-07-02T09:56:00+08:00,3.0,210.0,2026-07-02T09:35:00+08:00,32.6,2026-07-02T10:14:00+08:00,24.5,2026-07-02T04:52:00+08:00
CAC020,國二E009K,2026-07-02T10:30:00+08:00,25.018244,121.273697,25.020014,121.265475,109.0,桃園市,桃園區,68000,68000010,晴,>30,,0.0,280.0,1.6,30.8,73.0,,,2.2,350.0,2026-07-02T09:34:00+08:00,4.2,340.0,2026-07-02T09:30:00+08:00,31.5,2026-07-02T10:11:00+08:00,27.3,2026-07-02T03:44:00+08:00
CAB050,國三N002K,2026-07-02T10:30:00+08:00,25.14583,121.7217,25.147619,121.713466,79.0,基隆市,中山區,10017,10017050,晴,,,0.0,360.0,1.3,30.7,81.0,,,1.3,350.0,2026-07-02T09:52:00+08:00,3.1,340.0,2026-07-02T09:12:00+08:00,31.1,2026-07-02T09:29:00+08:00,24.3,2026-07-02T04:38:00+08:00
CAB030,國三S004K,2026-07-02T10:30:00+08:00,25.11444,121.6886,25.116228,121.680369,107.0,基隆市,七堵區,10017,10017020,晴,,,0.0,50.0,2.2,30.8,75.0,,,1.6,60.0,2026-07-02T09:19:00+08:00,3.9,60.0,2026-07-02T09:44:00+08:00,31.7,2026-07-02T10:01:00+08:00,23.3,2026-07-02T05:20:00+08:00
CAB040,國三S007K,2026-07-02T10:30:00+08:00,25.09694,121.6678,25.098727,121.65957,76.0,基隆市,七堵區,10017,10017020,晴,7-10,,0.0,70.0,2.4,31.3,80.0,,,3.0,60.0,2026-07-02T09:49:00+08:00,6.0,50.0,2026-07-02T09:19:00+08:00,31.7,2026-07-02T10:27:00+08:00,23.0,2026-07-02T05:04:00+08:00
CAA030,國三S010K,2026-07-02T10:30:00+08:00,25.08,121.6475,25.081787,121.639272,50.0,新北市,汐止區,65000,65000110,晴,,,0.0,10.0,3.2,31.8,68.0,,,3.6,360.0,2026-07-02T09:58:00+08:00,5.8,10.0,2026-07-02T09:44:00+08:00,32.1,2026-07-02T10:20:00+08:00,24.1,2026-07-02T05:22:00+08:00
CAA040,國三S016K,2026-07-02T10:30:00+08:00,25.03306,121.6158,25.034846,121.607575,71.0,臺北市,南港區,63000,63000090,晴,,,0.0,360.0,3.2,31.7,79.0,,,2.7,50.0,2026-07-02T09:46:00+08:00,4.7,350.0,2026-07-02T09:52:00+08:00,32.2,2026-07-02T09:33:00+08:00,24.5,2026-07-02T04:31:00+08:00
CAA050,國三S037K,2026-07-02T10:30:00+08:00,24.982361,121.471042,24.984141,121.462821,51.0,新北市,土城區,65000,65000130,晴,,,0.0,280.0,0.8,33.2,72.0,,,1.6,220.0,2026-07-02T09:08:00+08:00,3.7,220.0,2026-07-02T09:03:00+08:00,33.2,2026-07-02T10:30:00+08:00,25.8,2026-07-02T05:14:00+08:00
CAA060,國三S042K,2026-07-02T10:30:00+08:00,24.96,121.4306,24.961778,121.422381,50.0,新北市,土城區,65000,65000130,晴,7-10,,0.0,180.0,0.8,33.2,71.0,,,1.3,210.0,2026-07-02T09:02:00+08:00,2.4,220.0,2026-07-02T09:04:00+08:00,33.5,2026-07-02T10:01:00+08:00,25.0,2026-07-02T04:12:00+08:00
CAA070,國三N046K,2026-07-02T10:30:00+08:00,24.95083,121.3958,24.952607,121.387582,54.0,新北市,樹林區,65000,65000070,晴,,,0.0,280.0,1.7,32.2,75.0,,,1.6,290.0,2026-07-02T09:28:00+08:00,3.2,310.0,2026-07-02T09:31:00+08:00,33.1,2026-07-02T10:16:00+08:00,24.3,2026-07-02T05:02:00+08:00
CAA990,國一N039K,2026-07-02T10:30:00+08:00,25.064433,121.381972,25.066207,121.373771,233.0,新北市,泰山區,65000,65000160,晴,>30,,0.0,290.0,1.5,32.1,73.0,,,1.5,60.0,2026-07-02T09:01:00+08:00,4.3,30.0,2026-07-02T09:14:00+08:00,32.6,2026-07-02T09:20:00+08:00,24.5,2026-07-02T04:31:00+08:00
CAC760,國一高架N063K,2026-07-02T10:30:00+08:00,24.950281,121.196314,24.952048,121.188097,170.0,桃園市,平鎮區,68000,68000100,晴,>30,,0.0,310.0,2.2,30.3,79.0,,,3.0,280.0,2026-07-02T09:01:00+08:00,3.4,330.0,2026-07-02T10:00:00+08:00,30.6,2026-07-02T10:28:00+08:00,26.1,2026-07-02T02:26:00+08:00
CAD710,國三N077K,2026-07-02T10:30:00+08:00,24.797294,121.190033,24.799064,121.181827,218.0,新竹縣,關西鎮,10004,10004040,多雲,7-10,,0.0,310.0,1.1,30.1,80.0,,,1.1,290.0,2026-07-02T09:47:00+08:00,2.6,280.0,2026-07-02T09:47:00+08:00,31.6,2026-07-02T09:58:00+08:00,22.8,2026-07-02T03:56:00+08:00
CAC770,國三N072K,2026-07-02T10:30:00+08:00,24.836391,121.199371,24.838161,121.191163,313.0,桃園市,龍潭區,68000,68000090,多雲,7-10,,0.0,220.0,1.3,29.3,82.0,,,1.3,310.0,2026-07-02T09:47:00+08:00,2.9,230.0,2026-07-02T09:01:00+08:00,29.5,2026-07-02T09:31:00+08:00,23.5,2026-07-02T04:44:00+08:00
CAAD60,國五S005K,2026-07-02T10:30:00+08:00,24.996414,121.651931,24.998202,121.643708,154.0,新北市,石碇區,65000,65000190,晴,7-10,,0.0,10.0,1.7,32.0,69.0,,,2.2,360.0,2026-07-02T09:32:00+08:00,4.4,360.0,2026-07-02T09:27:00+08:00,32.2,2026-07-02T10:28:00+08:00,23.0,2026-07-02T04:56:00+08:00
CAAD70,國五S006K,2026-07-02T10:30:00+08:00,24.989964,121.656972,24.991753,121.64875,187.0,新北市,石碇區,65000,65000190,晴,7-10,,0.0,310.0,3.0,31.3,79.0,,,2.6,320.0,2026-07-02T09:35:00+08:00,5.3,310.0,2026-07-02T09:33:00+08:00,31.8,2026-07-02T10:22:00+08:00,22.8,2026-07-02T05:23:00+08:00
CAAD80,國五N008K,2026-07-02T10:30:00+08:00,24.982411,121.668089,24.985201,121.659868,217.0,新北市,石碇區,65000,65000190,晴,7-10,,0.0,360.0,3.6,30.8,79.0,,,4.0,350.0,2026-07-02T09:07:00+08:00,6.2,350.0,2026-07-02T09:01:00+08:00,31.0,2026-07-02T10:26:00+08:00,22.3,2026-07-02T05:41:00+08:00
CAAD90,國五N013K,2026-07-02T10:30:00+08:00,24.947603,121.705508,24.949395,121.697289,280.0,新北市,坪林區,65000,65000200,晴,7-10,,0.0,310.0,1.2,33.2,70.0,,,1.1,20.0,2026-07-02T10:00:00+08:00,2.7,280.0,2026-07-02T09:28:00+08:00,33.5,2026-07-02T10:22:00+08:00,21.6,2026-07-02T05:27:00+08:00
CAUB30,國五S031K,2026-07-02T10:30:00+08:00,24.819144,121.782378,24.820942,121.774168,40.0,宜蘭縣,礁溪鄉,10002,10002050,晴,>30,,0.0,60.0,4.8,29.7,79.0,,,5.4,60.0,2026-07-02T09:46:00+08:00,7.2,50.0,2026-07-02T09:34:00+08:00,30.3,2026-07-02T10:19:00+08:00,25.7,2026-07-02T04:51:00+08:00
CAUB40,國五S041K,2026-07-02T10:30:00+08:00,24.734764,121.781922,24.736563,121.773719,37.0,宜蘭縣,壯圍鄉,10002,10002060,晴,,,0.0,60.0,2.0,30.8,75.0,,,2.7,50.0,2026-07-02T09:46:00+08:00,4.8,60.0,2026-07-02T09:35:00+08:00,31.0,2026-07-02T10:28:00+08:00,25.8,2026-07-02T05:21:00+08:00
CAUB50,國五S047K,2026-07-02T10:30:00+08:00,24.675456,121.794583,24.677257,121.786384,38.0,宜蘭縣,羅東鎮,10002,10002020,晴,,,0.0,10.0,2.2,31.1,72.0,,,2.2,350.0,2026-07-02T09:01:00+08:00,3.9,350.0,2026-07-02T09:23:00+08:00,31.5,2026-07-02T09:34:00+08:00,26.1,2026-07-02T05:02:00+08:00
CAA080,國三S054K,2026-07-02T10:30:00+08:00,24.93917,121.3239,24.940943,121.315683,97.0,新北市,鶯歌區,65000,65000080,晴,>30,,0.0,200.0,0.9,31.8,69.0,,,1.3,270.0,2026-07-02T09:58:00+08:00,2.7,310.0,2026-07-02T09:17:00+08:00,32.6,2026-07-02T09:51:00+08:00,24.8,2026-07-02T03:35:00+08:00
CAC030,國三N063K,2026-07-02T10:30:00+08:00,24.889514,121.2636,24.891285,121.255387,203.0,桃園市,大溪區,68000,68000030,多雲,,,0.0,260.0,1.2,31.0,76.0,,,1.2,300.0,2026-07-02T09:13:00+08:00,2.6,290.0,2026-07-02T09:06:00+08:00,31.6,2026-07-02T10:04:00+08:00,25.3,2026-07-02T04:58:00+08:00
CAD080,國三N085K,2026-07-02T10:30:00+08:00,24.78333,121.1211,24.785096,121.112895,182.0,新竹縣,關西鎮,10004,10004040,多雲,>30,,0.0,190.0,1.1,30.5,81.0,,,1.3,190.0,2026-07-02T09:41:00+08:00,2.7,260.0,2026-07-02T09:55:00+08:00,31.3,2026-07-02T09:52:00+08:00,23.0,2026-07-02T04:01:00+08:00
CAD090,國三S103K,2026-07-02T10:30:00+08:00,24.75861,120.9608,24.76037,120.952631,101.0,新竹市,東區,10018,10018010,多雲,7-10,,0.0,10.0,1.8,29.6,83.0,,,2.0,320.0,2026-07-02T10:00:00+08:00,4.0,350.0,2026-07-02T09:59:00+08:00,30.2,2026-07-02T09:15:00+08:00,25.0,2026-07-02T05:23:00+08:00
CAB010,國一S001K,2026-07-02T10:30:00+08:00,25.11583,121.7286,25.11762,121.720369,49.0,基隆市,安樂區,10017,10017060,晴,>30,,0.0,40.0,2.4,30.6,80.0,,,2.9,10.0,2026-07-02T10:00:00+08:00,5.3,10.0,2026-07-02T09:47:00+08:00,31.2,2026-07-02T07:40:00+08:00,24.0,2026-07-02T05:16:00+08:00
CAB020,國一S006K,2026-07-02T10:30:00+08:00,25.08694,121.6869,25.088729,121.678671,52.0,基隆市,七堵區,10017,10017020,晴,,,0.0,80.0,2.6,32.0,79.0,,,3.2,90.0,2026-07-02T09:56:00+08:00,5.5,90.0,2026-07-02T09:59:00+08:00,32.0,2026-07-02T10:30:00+08:00,24.5,2026-07-02T04:26:00+08:00
CAA010,國一N013K,2026-07-02T10:30:00+08:00,25.066739,121.628153,25.068524,121.619925,39.0,新北市,汐止區,65000,65000110,晴,,,0.0,30.0,1.3,33.2,72.0,,,3.1,80.0,2026-07-02T09:36:00+08:00,5.9,80.0,2026-07-02T09:48:00+08:00,33.2,2026-07-02T10:30:00+08:00,26.2,2026-07-02T04:51:00+08:00
CAA020,國一S026K,2026-07-02T10:30:00+08:00,25.07639,121.4964,25.078169,121.488172,27.0,新北市,三重區,65000,65000020,晴,7-10,,0.0,30.0,2.1,32.5,70.0,,,2.1,50.0,2026-07-02T09:21:00+08:00,3.9,20.0,2026-07-02T09:08:00+08:00,33.1,2026-07-02T10:21:00+08:00,28.0,2026-07-02T05:15:00+08:00
CAC010,國一S072K,2026-07-02T10:30:00+08:00,24.89583,121.1342,24.897595,121.125987,214.0,桃園市,楊梅區,68000,68000040,多雲,7-10,,0.0,270.0,2.4,29.0,84.0,,,2.2,310.0,2026-07-02T09:26:00+08:00,4.7,270.0,2026-07-02T09:37:00+08:00,29.6,2026-07-02T09:56:00+08:00,25.3,2026-07-02T02:34:00+08:00
CAD020,國一N077K,2026-07-02T10:30:00+08:00,24.885,121.0889,24.886763,121.080688,172.0,新竹縣,湖口鄉,10004,10004050,多雲,,,0.0,270.0,2.9,29.3,79.0,,,2.7,310.0,2026-07-02T10:00:00+08:00,5.0,320.0,2026-07-02T10:00:00+08:00,29.5,2026-07-02T10:11:00+08:00,24.8,2026-07-02T05:16:00+08:00
CAD030,國一S082K,2026-07-02T10:30:00+08:00,24.87667,121.0467,24.878431,121.038489,137.0,新竹縣,湖口鄉,10004,10004050,多雲,,,0.0,330.0,2.6,29.6,79.0,,,2.2,290.0,2026-07-02T09:50:00+08:00,3.7,290.0,2026-07-02T09:59:00+08:00,30.6,2026-07-02T08:58:00+08:00,25.7,2026-07-02T05:22:00+08:00
CAD040,國一S088K,2026-07-02T10:30:00+08:00,24.84444,121.0214,24.8462,121.013191,48.0,新竹縣,竹北市,10004,10004010,多雲,>30,,0.0,300.0,2.2,31.3,80.0,,,2.7,340.0,2026-07-02T09:41:00+08:00,4.8,350.0,2026-07-02T09:38:00+08:00,31.3,2026-07-02T10:17:00+08:00,25.2,2026-07-02T05:07:00+08:00
CAD050,國一N094K,2026-07-02T10:30:00+08:00,24.79778,121.0089,24.799541,121.000695,75.0,新竹市,東區,10018,10018010,多雲,,,0.0,350.0,2.1,31.0,70.0,,,2.1,350.0,2026-07-02T09:25:00+08:00,4.0,340.0,2026-07-02T09:19:00+08:00,31.7,2026-07-02T10:14:00+08:00,24.5,2026-07-02T05:15:00+08:00
CAD060,國一S098K,2026-07-02T10:30:00+08:00,24.76056,120.9911,24.762369,120.982894,75.0,新竹縣,寶山鄉,10004,10004100,多雲,,,0.0,270.0,1.7,31.0,78.0,,,3.0,330.0,2026-07-02T09:58:00+08:00,4.8,340.0,2026-07-02T09:51:00+08:00,31.8,2026-07-02T09:46:00+08:00,25.0,2026-07-02T05:12:00+08:00
CAL020,國一S262K,2026-07-02T10:30:00+08:00,23.512333,120.403038,23.51409,120.394928,43.0,嘉義縣,民雄鄉,10010,10010050,多雲,7-10,,0.0,290.0,1.2,33.1,76.0,,,1.5,210.0,2026-07-02T09:47:00+08:00,3.1,230.0,2026-07-02T09:39:00+08:00,33.1,2026-07-02T10:29:00+08:00,27.1,2026-07-02T02:46:00+08:00
CAL030,國一N268K,2026-07-02T10:30:00+08:00,23.460833,120.375833,23.46259,120.367726,39.0,嘉義縣,水上鄉,10010,10010120,多雲,,,0.0,240.0,2.5,32.1,76.0,,,2.1,260.0,2026-07-02T09:59:00+08:00,3.5,210.0,2026-07-02T09:52:00+08:00,32.6,2026-07-02T10:26:00+08:00,26.8,2026-07-02T02:26:00+08:00
CAL040,國一N273K,2026-07-02T10:30:00+08:00,23.416666,120.355,23.418417,120.346896,39.0,嘉義縣,水上鄉,10010,10010120,多雲,,,0.0,230.0,1.8,32.4,79.0,,,2.0,230.0,2026-07-02T09:58:00+08:00,3.7,230.0,2026-07-02T09:55:00+08:00,32.7,2026-07-02T10:29:00+08:00,26.7,2026-07-02T01:40:00+08:00
CAN010,國一N288K,2026-07-02T10:30:00+08:00,23.30609,120.290033,23.307846,120.281937,34.0,臺南市,新營區,67000,67000010,晴,>30,,0.0,290.0,2.2,31.7,76.0,,,2.0,290.0,2026-07-02T09:43:00+08:00,4.0,260.0,2026-07-02T09:35:00+08:00,32.6,2026-07-02T10:09:00+08:00,27.2,2026-07-02T04:03:00+08:00
CAN020,國一S306K,2026-07-02T10:30:00+08:00,23.152831,120.230558,23.154587,120.222474,27.0,臺南市,麻豆區,67000,67000070,晴,7-10,,0.0,300.0,2.1,32.0,72.0,,,4.0,280.0,2026-07-02T09:58:00+08:00,6.3,280.0,2026-07-02T09:49:00+08:00,32.2,2026-07-02T10:22:00+08:00,26.8,2026-07-02T05:45:00+08:00
CAN040,國一N323K,2026-07-02T10:30:00+08:00,23.011789,120.249453,23.01355,120.241377,33.0,臺南市,永康區,67000,67000310,晴,,,0.0,280.0,1.5,31.5,78.0,,,3.0,310.0,2026-07-02T09:30:00+08:00,4.9,280.0,2026-07-02T09:40:00+08:00,32.2,2026-07-02T09:37:00+08:00,27.0,2026-07-02T05:03:00+08:00
CAP010,國一S342K,2026-07-02T10:30:00+08:00,22.845555,120.295,22.847321,120.286935,31.0,高雄市,路竹區,64000,64000240,晴,,,0.0,250.0,1.8,31.6,82.0,,,3.2,260.0,2026-07-02T09:06:00+08:00,4.2,260.0,2026-07-02T09:01:00+08:00,32.0,2026-07-02T10:13:00+08:00,26.8,2026-07-02T05:23:00+08:00
CAP020,國一S346K,2026-07-02T10:30:00+08:00,22.812222,120.314166,22.81399,120.306103,24.0,高雄市,岡山區,64000,64000190,晴,,,0.0,260.0,0.9,32.2,79.0,,,0.9,290.0,2026-07-02T09:06:00+08:00,2.7,290.0,2026-07-02T09:02:00+08:00,33.2,2026-07-02T10:14:00+08:00,26.3,2026-07-02T04:30:00+08:00
CAP030,國一N351K,2026-07-02T10:30:00+08:00,22.765833,120.328888,22.767602,120.320828,37.0,高雄市,橋頭區,64000,64000200,晴,,,,,,,,,,,,,,,,,,,
CAP040,國一N361K,2026-07-02T10:30:00+08:00,22.680555,120.328611,22.682326,120.320557,27.0,高雄市,仁武區,64000,64000170,晴,7-10,,0.0,260.0,1.6,32.2,76.0,,,3.2,270.0,2026-07-02T09:59:00+08:00,6.0,280.0,2026-07-02T09:57:00+08:00,33.7,2026-07-02T09:44:00+08:00,27.8,2026-07-02T05:18:00+08:00
CAL050,國三N279K,2026-07-02T10:30:00+08:00,23.596111,120.523333,23.597872,120.515216,113.0,嘉義縣,大林鎮,10010,10010040,多雲,16-20,,0.0,230.0,0.8,31.2,80.0,,,1.5,230.0,2026-07-02T09:29:00+08:00,3.5,200.0,2026-07-02T09:47:00+08:00,32.2,2026-07-02T08:27:00+08:00,25.8,2026-07-02T01:27:00+08:00
CAL070,國三N295K,2026-07-02T10:30:00+08:00,23.468598,120.499369,23.470361,120.491261,99.0,嘉義市,東區,10020,10020010,多雲,7-10,,0.0,280.0,1.3,31.6,79.0,,,1.6,220.0,2026-07-02T09:25:00+08:00,2.7,210.0,2026-07-02T09:21:00+08:00,32.4,2026-07-02T10:15:00+08:00,25.0,2026-07-02T03:15:00+08:00
CAM900,國三S290K,2026-07-02T10:30:00+08:00,23.504106,120.490742,23.505867,120.482631,47.0,嘉義縣,竹崎鄉,10010,10010140,多雲,7-10,,0.0,290.0,1.7,31.8,78.0,,,1.3,280.0,2026-07-02T09:06:00+08:00,2.4,240.0,2026-07-02T09:31:00+08:00,32.6,2026-07-02T08:51:00+08:00,25.3,2026-07-02T03:16:00+08:00
CAV270,國一S336K,2026-07-02T10:30:00+08:00,22.894167,120.271178,22.89593,120.263097,23.0,高雄市,路竹區,64000,64000240,晴,>30,,0.0,260.0,2.4,31.3,77.0,,,3.0,260.0,2026-07-02T09:04:00+08:00,4.4,220.0,2026-07-02T09:54:00+08:00,31.8,2026-07-02T10:28:00+08:00,25.8,2026-07-02T04:25:00+08:00
CAN150,國一N315K,2026-07-02T10:30:00+08:00,23.0835,120.251897,23.08526,120.24383,13.0,臺南市,新市區,67000,67000200,晴,21-30,,0.0,270.0,2.7,31.7,78.0,,,3.2,290.0,2026-07-02T09:58:00+08:00,4.7,280.0,2026-07-02T09:30:00+08:00,32.0,2026-07-02T08:37:00+08:00,26.7,2026-07-02T05:28:00+08:00
CAV280,國三S378K,2026-07-02T10:30:00+08:00,22.825958,120.415519,22.82773,120.407455,107.0,高雄市,田寮區,64000,64000220,晴,7-10,,0.0,290.0,1.7,31.8,81.0,,,2.6,320.0,2026-07-02T09:57:00+08:00,5.0,330.0,2026-07-02T09:56:00+08:00,32.2,2026-07-02T10:15:00+08:00,25.3,2026-07-02T04:34:00+08:00
CAL080,國三N303K,2026-07-02T10:30:00+08:00,23.411969,120.452447,23.413742,120.444389,72.0,嘉義縣,中埔鄉,10010,10010130,多雲,7-10,,0.0,260.0,0.8,32.2,80.0,,,2.0,290.0,2026-07-02T09:43:00+08:00,3.4,260.0,2026-07-02T09:35:00+08:00,32.2,2026-07-02T10:30:00+08:00,25.7,2026-07-02T03:00:00+08:00
CAN060,國三S311K,2026-07-02T10:30:00+08:00,23.346388,120.438888,23.34815,120.430789,66.0,臺南市,白河區,67000,67000030,多雲,21-30,,0.0,300.0,1.6,31.3,70.0,,,2.2,260.0,2026-07-02T09:21:00+08:00,3.9,260.0,2026-07-02T09:19:00+08:00,32.2,2026-07-02T09:11:00+08:00,24.8,2026-07-02T03:40:00+08:00
CAN070,國三S329K,2026-07-02T10:30:00+08:00,23.212777,120.355833,23.214538,120.347743,63.0,臺南市,官田區,67000,67000100,多雲,21-30,,0.0,260.0,1.6,31.3,81.0,,,1.7,300.0,2026-07-02T09:35:00+08:00,3.2,280.0,2026-07-02T10:00:00+08:00,32.7,2026-07-02T09:52:00+08:00,25.8,2026-07-02T03:58:00+08:00
CAN080,國三N336K,2026-07-02T10:30:00+08:00,23.154722,120.345,23.156484,120.336914,49.0,臺南市,官田區,67000,67000100,多雲,,,0.0,280.0,3.2,31.0,84.0,,,2.2,280.0,2026-07-02T09:34:00+08:00,3.7,270.0,2026-07-02T09:25:00+08:00,32.7,2026-07-02T10:11:00+08:00,25.3,2026-07-02T05:31:00+08:00
CAN090,國三S342K,2026-07-02T10:30:00+08:00,23.106694,120.327528,23.108456,120.319446,41.0,臺南市,善化區,67000,67000190,多雲,7-10,,0.0,260.0,2.1,32.0,72.0,,,1.5,330.0,2026-07-02T09:46:00+08:00,3.1,340.0,2026-07-02T09:45:00+08:00,33.1,2026-07-02T10:13:00+08:00,25.8,2026-07-02T05:25:00+08:00
CAN100,國三S366K,2026-07-02T10:30:00+08:00,22.9077,120.3513,22.909476,120.343284,64.0,臺南市,關廟區,67000,67000290,晴,>30,,0.0,270.0,2.5,31.2,74.0,,,1.5,290.0,2026-07-02T09:40:00+08:00,3.4,280.0,2026-07-02T09:05:00+08:00,32.6,2026-07-02T10:19:00+08:00,25.8,2026-07-02T02:49:00+08:00
CAP060,國三S385K,2026-07-02T10:30:00+08:00,22.767777,120.444444,22.769552,120.436379,93.0,高雄市,大樹區,64000,64000150,多雲,7-10,,0.0,280.0,1.2,33.2,69.0,,,1.3,350.0,2026-07-02T09:44:00+08:00,2.5,40.0,2026-07-02T09:43:00+08:00,34.0,2026-07-02T10:09:00+08:00,26.1,2026-07-02T02:35:00+08:00
CAQ020,國三S415K,2026-07-02T10:30:00+08:00,22.568,120.528,22.569782,120.519952,38.0,屏東縣,竹田鄉,10013,10013140,多雲,>30,,0.0,260.0,2.9,32.0,69.0,,,1.8,320.0,2026-07-02T09:03:00+08:00,4.0,300.0,2026-07-02T09:02:00+08:00,33.2,2026-07-02T09:58:00+08:00,26.3,2026-07-02T05:17:00+08:00
CAQ010,國三N425K,2026-07-02T10:30:00+08:00,22.480277,120.531666,22.482061,120.523624,33.0,屏東縣,南州鄉,10013,10013200,多雲,,,0.0,260.0,1.3,33.1,67.0,,,1.8,350.0,2026-07-02T09:53:00+08:00,3.6,350.0,2026-07-02T09:52:00+08:00,33.2,2026-07-02T10:14:00+08:00,25.8,2026-07-02T04:36:00+08:00
CAJ040,西濱S241K,2026-07-02T10:30:00+08:00,23.623426,120.172646,23.625171,120.164529,14.0,雲林縣,口湖鄉,10009,10009190,晴,21-30,,0.0,310.0,3.1,30.0,81.0,,,3.0,310.0,2026-07-02T09:53:00+08:00,4.6,330.0,2026-07-02T09:48:00+08:00,30.5,2026-07-02T08:45:00+08:00,27.3,2026-07-02T03:21:00+08:00
CAL100,西濱S267K,2026-07-02T10:30:00+08:00,23.41613,120.162872,23.417568,120.15477,8.0,嘉義縣,東石鄉,10010,10010090,晴,21-30,,0.0,290.0,3.5,29.8,82.0,,,3.3,280.0,2026-07-02T09:39:00+08:00,4.6,270.0,2026-07-02T09:37:00+08:00,30.5,2026-07-02T08:29:00+08:00,28.0,2026-07-02T03:54:00+08:00
CAC050,西濱S023K,2026-07-02T10:30:00+08:00,25.11649,121.27551,25.118258,121.26728,23.0,桃園市,蘆竹區,68000,68000050,晴,>30,,0.0,320.0,3.2,29.7,80.0,,,3.5,320.0,2026-07-02T09:33:00+08:00,4.8,290.0,2026-07-02T09:56:00+08:00,29.8,2026-07-02T10:29:00+08:00,26.7,2026-07-02T05:03:00+08:00
CAC060,西濱S032K,2026-07-02T10:30:00+08:00,25.091966,121.192505,25.09373,121.184277,21.0,桃園市,大園區,68000,68000060,晴,,,,,,,,,,,,,,,,,,,
CAD100,西濱N066K,2026-07-02T10:30:00+08:00,24.8956,120.9649,24.897357,120.956688,17.0,新竹縣,新豐鄉,10004,10004060,晴,16-20,,0.0,310.0,2.3,29.9,83.0,,,2.0,310.0,2026-07-02T09:55:00+08:00,3.2,270.0,2026-07-02T09:57:00+08:00,30.1,2026-07-02T10:08:00+08:00,25.6,2026-07-02T04:46:00+08:00
CAD110,西濱S082K,2026-07-02T10:30:00+08:00,24.751724,120.905028,24.753481,120.896827,17.0,新竹市,香山區,10018,10018030,多雲,>30,,0.0,310.0,2.1,30.1,80.0,,,2.4,330.0,2026-07-02T09:58:00+08:00,3.6,320.0,2026-07-02T09:49:00+08:00,30.1,2026-07-02T10:29:00+08:00,26.2,2026-07-02T05:18:00+08:00
CAE100,西濱N107K,2026-07-02T10:30:00+08:00,24.5958,120.7394,24.597551,120.731211,47.0,苗栗縣,後龍鎮,10005,10005060,多雲,16-20,,0.0,320.0,1.6,29.6,79.0,,,2.1,320.0,2026-07-02T09:48:00+08:00,3.3,270.0,2026-07-02T09:41:00+08:00,29.7,2026-07-02T10:26:00+08:00,26.0,2026-07-02T04:24:00+08:00
CAE110,西濱S129K,2026-07-02T10:30:00+08:00,24.4472,120.6428,24.44895,120.634622,42.0,苗栗縣,苑裡鎮,10005,10005020,多雲,16-20,,0.0,340.0,3.0,29.5,82.0,,,3.2,330.0,2026-07-02T09:47:00+08:00,4.1,340.0,2026-07-02T09:38:00+08:00,29.6,2026-07-02T10:15:00+08:00,27.3,2026-07-02T06:03:00+08:00
CAF100,西濱N151K,2026-07-02T10:30:00+08:00,24.275964,120.547681,24.277713,120.539516,14.0,臺中市,清水區,66000,66000120,多雲,>30,,0.0,350.0,2.2,30.2,78.0,,,2.1,340.0,2026-07-02T09:18:00+08:00,4.0,40.0,2026-07-02T09:25:00+08:00,30.9,2026-07-02T10:00:00+08:00,27.7,2026-07-02T02:11:00+08:00
CAG070,西濱S173K,2026-07-02T10:30:00+08:00,24.1081,120.434576,24.109847,120.426423,23.0,彰化縣,鹿港鎮,10007,10007020,晴,16-20,,0.0,320.0,4.8,29.6,78.0,,,5.2,320.0,2026-07-02T09:56:00+08:00,6.9,310.0,2026-07-02T09:48:00+08:00,29.7,2026-07-02T09:40:00+08:00,28.1,2026-07-02T04:08:00+08:00
CAG080,西濱S189K,2026-07-02T10:30:00+08:00,23.987857,120.369607,23.989603,120.361463,30.0,彰化縣,芳苑鄉,10007,10007230,晴,16-20,,0.0,320.0,4.3,29.3,82.0,,,3.5,330.0,2026-07-02T09:56:00+08:00,5.8,330.0,2026-07-02T10:00:00+08:00,29.6,2026-07-02T10:26:00+08:00,27.7,2026-07-02T03:37:00+08:00
CAG090,西濱N210K,2026-07-02T10:30:00+08:00,23.843536,120.293236,23.845282,120.285103,48.0,彰化縣,大城鄉,10007,10007240,晴,21-30,,0.0,340.0,3.3,29.5,82.0,,,3.5,350.0,2026-07-02T10:00:00+08:00,5.9,360.0,2026-07-02T09:40:00+08:00,29.9,2026-07-02T09:18:00+08:00,27.8,2026-07-02T02:10:00+08:00
CAJ030,西濱N222K,2026-07-02T10:30:00+08:00,23.737734,120.256132,23.73948,120.248007,31.0,雲林縣,麥寮鄉,10009,10009130,晴,16-20,,0.0,300.0,3.0,30.9,78.0,,,2.1,270.0,2026-07-02T09:33:00+08:00,4.2,240.0,2026-07-02T09:57:00+08:00,31.1,2026-07-02T10:26:00+08:00,27.5,2026-07-02T03:34:00+08:00
CAL090,西濱S257K,2026-07-02T10:30:00+08:00,23.502278,120.171861,23.504025,120.163753,5.0,嘉義縣,東石鄉,10010,10010090,晴,16-20,,0.0,330.0,1.5,31.1,80.0,,,1.5,270.0,2026-07-02T09:22:00+08:00,3.6,240.0,2026-07-02T09:40:00+08:00,31.8,2026-07-02T08:56:00+08:00,27.3,2026-07-02T03:07:00+08:00
CAN110,西濱S280K,2026-07-02T10:30:00+08:00,23.3052,120.14891,23.30695,120.140816,5.0,臺南市,北門區,67000,67000170,晴,11-15,,0.0,310.0,2.5,30.2,78.0,,,2.6,300.0,2026-07-02T09:34:00+08:00,3.9,290.0,2026-07-02T09:26:00+08:00,30.6,2026-07-02T09:10:00+08:00,28.3,2026-07-02T05:43:00+08:00
CAN120,西濱N304K,2026-07-02T10:30:00+08:00,23.103439,120.086694,23.10519,120.078614,49.0,臺南市,七股區,67000,67000150,晴,>30,,0.0,280.0,2.8,30.1,77.0,,,2.9,310.0,2026-07-02T09:39:00+08:00,4.0,300.0,2026-07-02T09:58:00+08:00,30.1,2026-07-02T08:51:00+08:00,27.8,2026-07-02T04:01:00+08:00
CAAK50,西濱N000K,2026-07-02T10:30:00+08:00,25.17606,121.41807,25.177834,121.409835,30.0,新北市,淡水區,65000,65000100,晴,,,0.0,270.0,3.3,28.8,82.0,,,3.4,270.0,2026-07-02T09:56:00+08:00,3.9,270.0,2026-07-02T09:51:00+08:00,30.1,2026-07-02T07:15:00+08:00,26.7,2026-07-02T05:44:00+08:00
